plate,state,license_type,summons_number,issue_date,hour,min,violation,judgment_entry_date,fine_amount,penalty_amount,interest_amount,reduction_amount,payment_amount,amount_due,precinct,borough,issuing_agency,violation_status,summons_image,weekday,year,month,day,address,vehicle_body_type,vehicle_year,latitude,longitude
JKD3917,NY,PAS,8827647430,2021-08-18,11,16A,FIRE HYDRANT,NA,115,0,0,0,115,0,107,Queens,TRAFFIC,ADMIN CLAIM DENIED,View Summons (http://nycserv.nyc.gov/NYCServWeb/ShowImage?searchID=VDBSbmVVNTZXVEJPZWxGNlRVRTlQUT09&locationName=_____________________),Wednesday,2021,8,18,"141-55 76th Rd ,   , NY",4DSD,0,40.7220951,-73.8196835
KLK2181,NY,PAS,8958883560,2021-07-09,15,41P,FIRE HYDRANT,NA,115,0,0,0,115,0,046,Bronx,TRAFFIC,ADMIN CLAIM DENIED,View Summons (http://nycserv.nyc.gov/NYCServWeb/ShowImage?searchID=VDBSck1VOUVaelJOZWxVeVRVRTlQUT09&locationName=_____________________),Friday,2021,7,9,"N E 178th St ,  8ft E/of Creston Ave , NY",4DSD,2012,40.8457186,-73.8894056
JEC6609,NY,PAS,8944730027,2021-07-21,8,48A,FIRE HYDRANT,NA,115,0,0,0,115,0,019,Manhattan,TRAFFIC,ADMIN CLAIM DENIED,View Summons (http://nycserv.nyc.gov/NYCServWeb/ShowImage?searchID=VDBSck1FNUVZM3BOUkVGNVRuYzlQUT09&locationName=_____________________),Wednesday,2021,7,21,"131 E 81st St ,   , NY",VAN,2018,40.7764795,-73.9581251
KHP2269,NY,PAS,8909572334,2021-07-02,24,37P,FIRE HYDRANT,NA,115,0,0,0,115,0,013,Manhattan,TRAFFIC,ADMIN CLAIM DENIED,View Summons (http://nycserv.nyc.gov/NYCServWeb/ShowImage?searchID=VDBScmQwOVVWVE5OYWsxNlRrRTlQUT09&locationName=_____________________),Friday,2021,7,2,"311 W 24th St ,   , NY",SUBN,2008,40.7464289,-73.9987432
HHL1354,NY,PAS,8796048700,2021-07-24,24,04P,FIRE HYDRANT,NA,115,0,0,0,115,0,115,Queens,TRAFFIC,ADMIN CLAIM DENIED,View Summons (http://nycserv.nyc.gov/NYCServWeb/ShowImage?searchID=VDBSak5VNXFRVEJQUkdOM1RVRTlQUT09&locationName=_____________________),Saturday,2021,7,24,"35-48 95th St ,   , NY",4DSD,2016,40.7516608,-73.8726192
KPY5822,NY,PAS,8623322836,2021-08-25,9,26A,FIRE HYDRANT,NA,115,0,0,0,115,0,112,Queens,TRAFFIC,ADMIN CLAIM DENIED,View Summons (http://nycserv.nyc.gov/NYCServWeb/ShowImage?searchID=VDBSWmVVMTZUWGxOYW1kNlRtYzlQUT09&locationName=_____________________),Wednesday,2021,8,25,"6295 Saunders St ,   , NY",SUBN,2019,40.7303731,-73.8651388
KNP6177,NY,PAS,8713341959,2021-08-01,10,55A,FIRE HYDRANT,NA,115,0,0,0,115,0,110,Queens,TRAFFIC,ADMIN CLAIM DENIED,View Summons (http://nycserv.nyc.gov/NYCServWeb/ShowImage?searchID=VDBSamVFMTZUVEJOVkdzeFQxRTlQUT09&locationName=_____________________),Sunday,2021,8,1,"55-34 97th St ,   , NY",SUBN,2017,40.737573,-73.864512
JMF3091,NY,PAS,8986224197,2021-07-27,5,16A,FIRE HYDRANT,NA,115,0,0,0,115,0,104,Queens,TRAFFIC,ADMIN CLAIM DENIED,View Summons (http://nycserv.nyc.gov/NYCServWeb/ShowImage?searchID=VDBSck5FNXFTWGxPUkVVMVRuYzlQUT09&locationName=_____________________),Tuesday,2021,7,27,"5441 Arnold Ave ,   , NY",SUBN,2019,40.7142993,-73.9100112
KFG2229,NY,PAS,8996640232,2021-07-09,22,23P,FIRE HYDRANT,NA,115,0,0,0,115,0,070,Brooklyn,TRAFFIC,ADMIN CLAIM DENIED,View Summons (http://nycserv.nyc.gov/NYCServWeb/ShowImage?searchID=VDBSck5VNXFXVEJOUkVsNlRXYzlQUT09&locationName=_____________________),Friday,2021,7,9,"W Ocean Ave ,  165ft S/of Avenue H , NY",4DSD,2004,40.6192476,-73.9551094
KGJ2535,NY,PAS,8515448312,2021-09-22,6,14A,FIRE HYDRANT,NA,115,0,0,0,0,115,062,Brooklyn,TRAFFIC,ADMIN CLAIM DENIED,View Summons (http://nycserv.nyc.gov/NYCServWeb/ShowImage?searchID=VDBSVmVFNVVVVEJQUkUxNFRXYzlQUT09&locationName=_____________________),Wednesday,2021,9,22,"6712 19th Ave ,   , NY",SUBN,2018,40.6165815,-73.9897291
KDV1199,NY,PAS,8574593539,2021-08-05,7,18A,FIRE HYDRANT,NA,115,0,0,0,0,115,042,Bronx,TRAFFIC,ADMIN CLAIM DENIED,View Summons (http://nycserv.nyc.gov/NYCServWeb/ShowImage?searchID=VDBSVk0wNUVWVFZOZWxWNlQxRTlQUT09&locationName=_____________________),Thursday,2021,8,5,"1270 Webster Ave ,   , NY",SUBN,2010,40.8335755,-73.9085036
KEK1652,NY,PAS,8731343570,2021-10-02,7,41A,FIRE HYDRANT,NA,115,0,0,0,115,0,103,Queens,TRAFFIC,ADMIN CLAIM DENIED,View Summons (http://nycserv.nyc.gov/NYCServWeb/ShowImage?searchID=VDBSamVrMVVUVEJOZWxVelRVRTlQUT09&locationName=_____________________),Saturday,2021,10,2,"17019 89th Ave ,   , NY",SUBN,2021,40.7099897,-73.7904971
FCX5404,NY,PAS,8731336048,2021-08-21,7,34A,FIRE HYDRANT,NA,115,0,0,0,0,115,103,Queens,TRAFFIC,ADMIN CLAIM DENIED,View Summons (http://nycserv.nyc.gov/NYCServWeb/ShowImage?searchID=VDBSamVrMVVUWHBPYWtFd1QwRTlQUT09&locationName=_____________________),Saturday,2021,8,21,"W 164th St ,  5ft N/of 107th Ave , NY",4DSD,2011,40.8364653,-73.9370344
KMS9358,NY,PAS,8743483630,2021-10-19,15,25P,FIRE HYDRANT,NA,115,0,0,0,0,115,114,Queens,TRAFFIC,ADMIN CLAIM DENIED,View Summons (http://nycserv.nyc.gov/NYCServWeb/ShowImage?searchID=VDBSak1FMTZVVFJOZWxsNlRVRTlQUT09&locationName=_____________________),Tuesday,2021,10,19,"35-12 32nd St ,   , NY",4DSD,2021,40.7574971,-73.9281059
JGM7214,NY,PAS,8984175080,2021-08-01,11,27A,FIRE HYDRANT,NA,115,0,0,0,115,0,070,Brooklyn,TRAFFIC,ADMIN CLAIM DENIED,View Summons (http://nycserv.nyc.gov/NYCServWeb/ShowImage?searchID=VDBSck5FNUVSVE5PVkVFMFRVRTlQUT09&locationName=_____________________),Sunday,2021,8,1,"2075 Bedford Ave ,   , NY",SUBN,2011,40.6541666,-73.9559099
BCV1778,NY,PAS,8836833093,2021-09-17,16,54P,FIRE HYDRANT,NA,115,0,0,0,115,0,108,Queens,TRAFFIC,ADMIN CLAIM DENIED,View Summons (http://nycserv.nyc.gov/NYCServWeb/ShowImage?searchID=VDBSbmVrNXFaM3BOZWtFMVRYYzlQUT09&locationName=_____________________),Friday,2021,9,17,"43-18 39th Pl ,   , NY",SUBN,2020,40.7450588,-73.925216699999993
KRM9808,NY,PAS,8791742298,2021-10-21,14,24P,FIRE HYDRANT,NA,115,0,0,0,0,115,108,Queens,TRAFFIC,ADMIN CLAIM DENIED,View Summons (http://nycserv.nyc.gov/NYCServWeb/ShowImage?searchID=VDBSak5VMVVZekJOYWtrMVQwRTlQUT09&locationName=_____________________),Thursday,2021,10,21,"50-27 Celtic Ave ,   , NY",SUBN,2014,40.7368571,-73.9224167
KHJ4270,NY,PAS,8821137788,2021-10-17,24,43P,FIRE HYDRANT,NA,115,0,0,0,0,115,052,Bronx,TRAFFIC,ADMIN CLAIM DENIED,View Summons (http://nycserv.nyc.gov/NYCServWeb/ShowImage?searchID=VDBSbmVVMVVSWHBPZW1NMFQwRTlQUT09&locationName=_____________________),Sunday,2021,10,17,"W Putnam Pl ,  2ft N/of Reservoir O , NY",SUBN,2014,40.879593,-73.8753746
FCX5404,NY,PAS,8854482808,2021-07-30,7,54A,FIRE HYDRANT,NA,115,0,0,0,0,115,103,Queens,TRAFFIC,ADMIN CLAIM DENIED,View Summons (http://nycserv.nyc.gov/NYCServWeb/ShowImage?searchID=VDBSbk1VNUVVVFJOYW1kM1QwRTlQUT09&locationName=_____________________),Friday,2021,7,30,"107-04 164th Pl ,   , NY",4DSD,2011,40.6985732,-73.7908782
FCX5404,NY,PAS,8854483369,2021-08-03,7,44A,FIRE HYDRANT,NA,115,0,0,0,0,115,103,Queens,TRAFFIC,ADMIN CLAIM DENIED,View Summons (http://nycserv.nyc.gov/NYCServWeb/ShowImage?searchID=VDBSbk1VNUVVVFJOZWsweVQxRTlQUT09&locationName=_____________________),Tuesday,2021,8,3,"104-42 164th Pl ,   , NY",4DSD,2011,40.6991835,-73.7912442
KMS1954,NY,PAS,8955679695,2021-08-27,21,56P,FIRE HYDRANT,NA,115,0,0,0,115,0,034,Manhattan,TRAFFIC,ADMIN CLAIM DENIED,View Summons (http://nycserv.nyc.gov/NYCServWeb/ShowImage?searchID=VDBSck1VNVVXVE5QVkZrMVRsRTlQUT09&locationName=_____________________),Friday,2021,8,27,"34 Bogardus Pl ,   , NY",SUBN,2018,40.85949,-73.9286614
FCX5404,NY,PAS,8878596565,2021-09-09,8,29A,FIRE HYDRANT,NA,115,0,0,0,0,115,103,Queens,TRAFFIC,ADMIN CLAIM DENIED,View Summons (http://nycserv.nyc.gov/NYCServWeb/ShowImage?searchID=VDBSbk0wOUVWVFZPYWxVeVRsRTlQUT09&locationName=_____________________),Thursday,2021,9,9,"107-04 164th St ,   , NY",4DSD,2011,40.6981973,-73.7916559
KPD6462,NY,PAS,8958543693,2021-08-30,6,51A,FIRE HYDRANT,NA,115,0,0,0,115,0,050,Bronx,TRAFFIC,ADMIN CLAIM DENIED,View Summons (http://nycserv.nyc.gov/NYCServWeb/ShowImage?searchID=VDBSck1VOUVWVEJOZWxrMVRYYzlQUT09&locationName=_____________________),Monday,2021,8,30,"225 W Kingsbridge Rd ,   , NY",SUBN,2007,40.8723094,-73.9040795
HLD7403,NY,PAS,8880341923,2021-08-05,22,34P,FIRE HYDRANT,NA,115,0,0,0,0,115,104,Queens,TRAFFIC,ADMIN CLAIM DENIED,View Summons (http://nycserv.nyc.gov/NYCServWeb/ShowImage?searchID=VDBSbk5FMUVUVEJOVkd0NVRYYzlQUT09&locationName=_____________________),Thursday,2021,8,5,"59-76 60th Pl ,   , NY",4DSD,2006,40.716916,-73.9048515
JHM3521,NY,PAS,8853337783,2021-07-02,10,30A,FIRE HYDRANT,NA,115,0,0,0,115,0,109,Queens,TRAFFIC,ADMIN CLAIM DENIED,View Summons (http://nycserv.nyc.gov/NYCServWeb/ShowImage?searchID=VDBSbk1VMTZUWHBPZW1NMFRYYzlQUT09&locationName=_____________________),Friday,2021,7,2,"144-29 Northern Blvd ,   , NY",2DSD,2006,40.7650336,-73.8224725
JLR8749,NY,PAS,8901611314,2021-10-21,15,06P,FIRE HYDRANT,NA,115,0,0,0,0,115,115,Queens,TRAFFIC,ADMIN CLAIM DENIED,View Summons (http://nycserv.nyc.gov/NYCServWeb/ShowImage?searchID=VDBScmQwMVVXWGhOVkUxNFRrRTlQUT09&locationName=_____________________),Thursday,2021,10,21,"37-20 81st St ,   , NY",SUBN,2019,40.7489953,-73.8853682
KSC4854,NY,PAS,8904602865,2021-10-23,8,36A,FIRE HYDRANT,NA,115,0,0,0,0,115,052,Bronx,TRAFFIC,ADMIN CLAIM DENIED,View Summons (http://nycserv.nyc.gov/NYCServWeb/ShowImage?searchID=VDBScmQwNUVXWGROYW1jeVRsRTlQUT09&locationName=_____________________),Saturday,2021,10,23,"E University Ave ,  2ft N/of W Kingsbrid , NY",SUBN,2014,40.8523165,-73.9136077
KGJ2535,NY,PAS,8906123050,2021-10-23,11,06A,FIRE HYDRANT,NA,115,0,0,0,0,115,062,Brooklyn,TRAFFIC,ADMIN CLAIM DENIED,View Summons (http://nycserv.nyc.gov/NYCServWeb/ShowImage?searchID=VDBScmQwNXFSWGxOZWtFeFRVRTlQUT09&locationName=_____________________),Saturday,2021,10,23,"N 67th St ,  45ft W/of 19th Ave , NY",SUBN,2018,40.6266975,-74.0058375
HXH3408,NY,PAS,8906606280,2021-10-06,8,07A,FIRE HYDRANT,NA,115,0,0,0,0,115,079,Brooklyn,TRAFFIC,ADMIN CLAIM DENIED,View Summons (http://nycserv.nyc.gov/NYCServWeb/ShowImage?searchID=VDBScmQwNXFXWGRPYWtrMFRVRTlQUT09&locationName=_____________________),Wednesday,2021,10,6,"511 Willoughby Ave ,   , NY",4DSD,2007,40.6940214,-73.9492394
KME4502,NY,PAS,8907745973,2021-10-22,8,51A,FIRE HYDRANT,NA,115,0,0,0,0,115,109,Queens,TRAFFIC,ADMIN CLAIM DENIED,View Summons (http://nycserv.nyc.gov/NYCServWeb/ShowImage?searchID=VDBScmQwNTZZekJPVkdzelRYYzlQUT09&locationName=_____________________),Friday,2021,10,22,"141-02 Cherry Ave ,   , NY",4DSD,2012,40.754564,-73.821427
KRS8307,NY,PAS,8947041889,2021-10-11,10,00A,FIRE HYDRANT,NA,115,0,0,0,115,0,020,Manhattan,TRAFFIC,ADMIN CLAIM DENIED,View Summons (http://nycserv.nyc.gov/NYCServWeb/ShowImage?searchID=VDBSck1FNTZRVEJOVkdjMFQxRTlQUT09&locationName=_____________________),Monday,2021,10,11,"2 W 67th St ,   , NY",4DSD,2011,40.7730987,-73.9789029
KDV1199,NY,PAS,8918185583,2021-10-02,6,33A,FIRE HYDRANT,NA,115,0,0,0,0,115,001,Manhattan,TRAFFIC,ADMIN CLAIM DENIED,View Summons (http://nycserv.nyc.gov/NYCServWeb/ShowImage?searchID=VDBScmVFOUVSVFJPVkZVMFRYYzlQUT09&locationName=_____________________),Saturday,2021,10,2,"S John St ,  5ft E/of Gold St , NY",SUBN,2010,40.7079237,-74.0057648
KSP1995,NY,PAS,8879595957,2021-09-15,6,59A,FIRE HYDRANT,NA,115,0,0,0,115,0,110,Queens,TRAFFIC,ADMIN CLAIM DENIED,View Summons (http://nycserv.nyc.gov/NYCServWeb/ShowImage?searchID=VDBSbk0wOVVWVFZPVkdzeFRuYzlQUT09&locationName=_____________________),Wednesday,2021,9,15,"51-17 99th St ,   , NY",SUBN,2008,40.7412357,-73.8613063
KJH3824,NY,PAS,8903419625,2021-07-17,24,45P,FIRE HYDRANT,NA,115,0,0,0,115,0,114,Queens,TRAFFIC,ADMIN CLAIM DENIED,View Summons (http://nycserv.nyc.gov/NYCServWeb/ShowImage?searchID=VDBScmQwMTZVWGhQVkZsNVRsRTlQUT09&locationName=_____________________),Saturday,2021,7,17,"28-10 Steinway St ,   , NY",4DSD,2001,40.765282,-73.914163
KJE7544,NY,PAS,8941779480,2021-07-01,6,33A,FIRE HYDRANT,NA,115,0,0,0,0,115,032,Manhattan,TRAFFIC,ADMIN CLAIM DENIED,View Summons (http://nycserv.nyc.gov/NYCServWeb/ShowImage?searchID=VDBSck1FMVVZek5QVkZFMFRVRTlQUT09&locationName=_____________________),Thursday,2021,7,1,"W Bradhurst Ave ,  65ft S/of W 145th St , NY",4DSD,2007,40.8257929,-73.9410556
KJE7544,NY,PAS,8941879784,2021-07-06,6,52A,FIRE HYDRANT,NA,115,0,0,0,0,115,032,Manhattan,TRAFFIC,ADMIN CLAIM DENIED,View Summons (http://nycserv.nyc.gov/NYCServWeb/ShowImage?searchID=VDBSck1FMVVaek5QVkdNMFRrRTlQUT09&locationName=_____________________),Tuesday,2021,7,6,"300 W 145th St ,   , NY",4DSD,2007,40.8228868,-73.942591
GNB1518,NY,PAS,8943503027,2021-09-30,13,51P,FIRE HYDRANT,NA,115,0,0,0,0,115,019,Manhattan,TRAFFIC,ADMIN CLAIM DENIED,View Summons (http://nycserv.nyc.gov/NYCServWeb/ShowImage?searchID=VDBSck1FMTZWWGROZWtGNVRuYzlQUT09&locationName=_____________________),Thursday,2021,9,30,"177 E 71st St ,   , NY",SUBN,2019,40.769556,-73.961689
KRS9040,NY,PAS,8945425044,2021-08-17,7,54A,FIRE HYDRANT,NA,115,0,0,0,0,115,028,Manhattan,TRAFFIC,ADMIN CLAIM DENIED,View Summons (http://nycserv.nyc.gov/NYCServWeb/ShowImage?searchID=VDBSck1FNVVVWGxPVkVFd1RrRTlQUT09&locationName=_____________________),Tuesday,2021,8,17,"25 Lenox Ave ,   , NY",PICK,2018,40.7992268,-73.9520607
KKE9716,NY,PAS,8946744108,2021-09-09,14,56P,FIRE HYDRANT,NA,115,0,0,0,0,115,023,Manhattan,TRAFFIC,ADMIN CLAIM DENIED,View Summons (http://nycserv.nyc.gov/NYCServWeb/ShowImage?searchID=VDBSck1FNXFZekJPUkVWM1QwRTlQUT09&locationName=_____________________),Thursday,2021,9,9,"35 E 106th St ,   , NY",PICK,2014,40.7939186,-73.9496841
KJE7544,NY,PAS,8949938030,2021-07-01,13,44P,FIRE HYDRANT,NA,115,0,0,0,0,115,032,Manhattan,TRAFFIC,ADMIN CLAIM DENIED,View Summons (http://nycserv.nyc.gov/NYCServWeb/ShowImage?searchID=VDBSck1FOVVhM3BQUkVGNlRVRTlQUT09&locationName=_____________________),Thursday,2021,7,1,"W Bradhurst Ave ,  65ft S/of W 145th St , NY",4DSD,2007,40.8257929,-73.9410556
HMY3385,NY,PAS,8951823477,2021-08-12,9,10A,FIRE HYDRANT,NA,115,0,0,0,0,115,019,Manhattan,TRAFFIC,ADMIN CLAIM DENIED,View Summons (http://nycserv.nyc.gov/NYCServWeb/ShowImage?searchID=VDBSck1VMVVaM2xOZWxFelRuYzlQUT09&locationName=_____________________),Thursday,2021,8,12,"179 E 93rd St ,   , NY",PICK,2017,40.7838044,-73.9513891
KJE7544,NY,PAS,8956269660,2021-07-22,0,30A,FIRE HYDRANT,NA,115,0,0,0,0,115,032,Manhattan,TRAFFIC,ADMIN CLAIM DENIED,View Summons (http://nycserv.nyc.gov/NYCServWeb/ShowImage?searchID=VDBSck1VNXFTVEpQVkZreVRVRTlQUT09&locationName=_____________________),Thursday,2021,7,22,"258 W 153rd St ,   , NY",4DSD,2007,40.827311,-73.937506
KGW4422,NY,PAS,8667391992,2021-08-13,8,19A,FIRE HYDRANT,NA,115,0,0,0,115,0,114,Queens,TRAFFIC,ADMIN CLAIM DENIED,View Summons (http://nycserv.nyc.gov/NYCServWeb/ShowImage?searchID=VDBSWk1rNTZUVFZOVkdzMVRXYzlQUT09&locationName=_____________________),Friday,2021,8,13,"11-09 30th Dr ,   , NY",4DSD,2017,40.7704005,-73.9339341
JJZ2142,NY,PAS,8856883028,2021-08-17,7,58A,FIRE HYDRANT,NA,115,0,0,0,115,0,109,Queens,TRAFFIC,ADMIN CLAIM DENIED,View Summons (http://nycserv.nyc.gov/NYCServWeb/ShowImage?searchID=VDBSbk1VNXFaelJOZWtGNVQwRTlQUT09&locationName=_____________________),Tuesday,2021,8,17,"141-25 Booth Memorial Ave ,   , NY",4DSD,2006,40.7461708,-73.8237354
KLE4142,NY,PAS,8949989610,2021-08-13,14,26P,FIRE HYDRANT,NA,115,0,0,0,115,0,034,Manhattan,TRAFFIC,ADMIN CLAIM DENIED,View Summons (http://nycserv.nyc.gov/NYCServWeb/ShowImage?searchID=VDBSck1FOVVhelJQVkZsNFRVRTlQUT09&locationName=_____________________),Friday,2021,8,13,"65 Wadsworth Ter ,   , NY",4DSD,2001,40.8566829,-73.931308
JCB5031,NY,PAS,8996938476,2021-09-14,23,19P,FIRE HYDRANT,NA,115,0,0,0,0,115,072,Brooklyn,TRAFFIC,ADMIN CLAIM DENIED,View Summons (http://nycserv.nyc.gov/NYCServWeb/ShowImage?searchID=VDBSck5VNXFhM3BQUkZFelRtYzlQUT09&locationName=_____________________),Tuesday,2021,9,14,"351 20th St ,   , NY",4DSD,2021,40.6598333,-73.9890978
JMA4690,NY,PAS,2001936205,2021-07-24,7,41A,FIRE HYDRANT,NA,115,0,0,115,0,0,045,Bronx,DEPARTMENT OF SANITATION,ADMIN CLAIM GRANTED,View Summons (http://nycserv.nyc.gov/NYCServWeb/ShowImage?searchID=VFdwQmQwMVVhM3BPYWtsM1RsRTlQUT09&locationName=_____________________),Saturday,2021,7,24,"1855 MAYFLOWER AVENUE ,   , NY",SUBN,2020,40.8489861,-73.834348
KLW2888,NY,PAS,1472314440,2021-08-14,6,45A,FIRE HYDRANT,NA,115,0,0,115,0,0,110,Queens,POLICE DEPARTMENT,ADMIN CLAIM GRANTED,View Summons (http://nycserv.nyc.gov/NYCServWeb/ShowImage?searchID=VFZSUk0wMXFUWGhPUkZFd1RVRTlQUT09&locationName=_____________________),Saturday,2021,8,14,"42-20 82 ST ,   , NY",SDN,0,40.7422922,-73.8833535
JBD7654,NY,PAS,1474329962,2021-09-12,2,36A,FIRE HYDRANT,NA,115,0,0,115,0,0,030,Manhattan,POLICE DEPARTMENT,ADMIN CLAIM GRANTED,View Summons (http://nycserv.nyc.gov/NYCServWeb/ShowImage?searchID=VFZSUk0wNUVUWGxQVkdzeVRXYzlQUT09&locationName=_____________________),Sunday,2021,9,12,"635 RIVERSIDE DRIVE ,   , NY",SDN,2021,40.8244952,-73.9541903
GMF7758,NY,PAS,1481702683,2021-08-26,0,19A,FIRE HYDRANT,NA,115,0,0,115,0,0,070,Brooklyn,POLICE DEPARTMENT,ADMIN CLAIM GRANTED,View Summons (http://nycserv.nyc.gov/NYCServWeb/ShowImage?searchID=VFZSUk5FMVVZM2ROYWxrMFRYYzlQUT09&locationName=_____________________),Thursday,2021,8,26,"845 SETON PLACE ,   , NY",VAN,0,40.6304616,-73.975218
HXH4548,NY,PAS,1484259427,2021-08-31,19,10P,FIRE HYDRANT,NA,115,0,0,115,0,0,033,Manhattan,POLICE DEPARTMENT,ADMIN CLAIM GRANTED,View Summons (http://nycserv.nyc.gov/NYCServWeb/ShowImage?searchID=VFZSUk5FNUVTVEZQVkZGNVRuYzlQUT09&locationName=_____________________),Tuesday,2021,8,31,"498 W 158 ST ,   , NY",NA,2019,40.833299,-73.941447
JSE2721,NY,PAS,1484372542,2021-08-27,8,47A,FIRE HYDRANT,NA,115,0,0,115,0,0,000,Queens,POLICE DEPARTMENT,ADMIN CLAIM GRANTED,View Summons (http://nycserv.nyc.gov/NYCServWeb/ShowImage?searchID=VFZSUk5FNUVUVE5OYWxVd1RXYzlQUT09&locationName=_____________________),Friday,2021,8,27,"73-41 52 DRIVE ,   , NY",NA,0,40.7327295,-73.8888828
KGR8107,NY,PAS,1473977083,2021-10-15,1,12A,FIRE HYDRANT,NA,115,0,0,115,0,0,050,Bronx,POLICE DEPARTMENT,ADMIN CLAIM GRANTED,View Summons (http://nycserv.nyc.gov/NYCServWeb/ShowImage?searchID=VFZSUk0wMTZhek5PZWtFMFRYYzlQUT09&locationName=_____________________),Friday,2021,10,15,"3241 CORLEAR ,   , NY",NA,2009,40.8825133,-73.9057632
KFP6486,NY,PAS,1485486063,2021-09-18,3,51A,FIRE HYDRANT,NA,115,0,0,115,0,0,071,Brooklyn,POLICE DEPARTMENT,ADMIN CLAIM GRANTED,View Summons (http://nycserv.nyc.gov/NYCServWeb/ShowImage?searchID=VFZSUk5FNVVVVFJPYWtFeVRYYzlQUT09&locationName=_____________________),Saturday,2021,9,18,"466 MIDWOOD STREET ,   , NY",SUBN,2016,40.6603308,-73.9450497
36BG90,NY,PAS,2000667508,2021-09-30,8,57A,FIRE HYDRANT,NA,115,0,0,115,0,0,017,Manhattan,DEPARTMENT OF SANITATION,ADMIN CLAIM GRANTED,View Summons (http://nycserv.nyc.gov/NYCServWeb/ShowImage?searchID=VFdwQmQwMUVXVEpPZWxWM1QwRTlQUT09&locationName=_____________________),Thursday,2021,9,30,"453 EAST 58 STREET ,   , NY",MOPD,0,40.7582907,-73.9602516
HDD2484,NY,PAS,2003256325,2021-08-11,9,22A,FIRE HYDRANT,NA,115,0,0,115,0,0,110,Queens,DEPARTMENT OF SANITATION,ADMIN CLAIM GRANTED,View Summons (http://nycserv.nyc.gov/NYCServWeb/ShowImage?searchID=VFdwQmQwMTZTVEZPYWsxNVRsRTlQUT09&locationName=_____________________),Wednesday,2021,8,11,"104-29 47 AVENUE ,   , NY",4DSD,0,40.7461922,-73.8585641
KGF4360,NY,PAS,1485416437,2021-09-30,13,50P,FIRE HYDRANT,NA,115,0,0,115,0,0,066,Brooklyn,POLICE DEPARTMENT,ADMIN CLAIM GRANTED,View Summons (http://nycserv.nyc.gov/NYCServWeb/ShowImage?searchID=VFZSUk5FNVVVWGhPYWxGNlRuYzlQUT09&locationName=_____________________),Thursday,2021,9,30,"4002 FT HAMILTON PKWY ,   , NY",SDN,2020,40.6427149,-73.9922313
21BG96,NY,PAS,1481920595,2021-09-15,1,09A,FIRE HYDRANT,NA,115,0,0,115,0,0,108,Queens,POLICE DEPARTMENT,ADMIN CLAIM GRANTED,View Summons (http://nycserv.nyc.gov/NYCServWeb/ShowImage?searchID=VFZSUk5FMVVhM2xOUkZVMVRsRTlQUT09&locationName=_____________________),Wednesday,2021,9,15,"55-08 37 AVENUE ,   , NY",NA,2021,40.7505516,-73.906789
LCJ7877,NY,PAS,1483109320,2021-10-13,3,23A,FIRE HYDRANT,NA,115,0,0,115,0,0,043,Bronx,POLICE DEPARTMENT,ADMIN CLAIM GRANTED,View Summons (http://nycserv.nyc.gov/NYCServWeb/ShowImage?searchID=VFZSUk5FMTZSWGRQVkUxNVRVRTlQUT09&locationName=_____________________),Wednesday,2021,10,13,"2245 RANDALL AVE ,   , NY",SDN,2011,40.8198592,-73.8468901
JPJ6922,NY,PAS,1448011310,2021-07-23,12,53A,FIRE HYDRANT,NA,115,0,0,115,0,0,000,Queens,POLICE DEPARTMENT,ADMIN CLAIM GRANTED,View Summons (http://nycserv.nyc.gov/NYCServWeb/ShowImage?searchID=VFZSUk1FOUVRWGhOVkUxNFRVRTlQUT09&locationName=_____________________),Friday,2021,7,23,"153-39 ARLINGTON TERR ,   , NY",NA,2020,40.693232,-73.7978399
BB69MX,NY,PAS,1471719042,2021-09-06,23,12P,FIRE HYDRANT,NA,115,0,0,115,0,0,105,Queens,POLICE DEPARTMENT,ADMIN CLAIM GRANTED,View Summons (http://nycserv.nyc.gov/NYCServWeb/ShowImage?searchID=VFZSUk0wMVVZM2hQVkVFd1RXYzlQUT09&locationName=_____________________),Monday,2021,9,6,"145-15 220 STREET ,   , NY",SUBN,0,40.664006,-73.758032
CHU2374,NY,PAS,1472276486,2021-09-19,19,20P,FIRE HYDRANT,NA,115,0,0,115,0,0,110,Queens,POLICE DEPARTMENT,ADMIN CLAIM GRANTED,View Summons (http://nycserv.nyc.gov/NYCServWeb/ShowImage?searchID=VFZSUk0wMXFTVE5PYWxFMFRtYzlQUT09&locationName=_____________________),Sunday,2021,9,19,"41-17 JUDGE ST ,   , NY",SUBN,0,40.745705,-73.883077
KLX3567,NY,PAS,1471771192,2021-10-03,13,00P,FIRE HYDRANT,NA,115,0,0,115,0,0,106,Queens,POLICE DEPARTMENT,ADMIN CLAIM GRANTED,View Summons (http://nycserv.nyc.gov/NYCServWeb/ShowImage?searchID=VFZSUk0wMVVZek5OVkVVMVRXYzlQUT09&locationName=_____________________),Sunday,2021,10,3,"106-06 ROCKAWAY BLVD ,   , NY",NA,2018,40.6783754,-73.8327794
JLN4400,NY,PAS,1473186407,2021-09-08,24,38P,FIRE HYDRANT,NA,115,0,0,115,0,0,001,Manhattan,POLICE DEPARTMENT,ADMIN CLAIM GRANTED,View Summons (http://nycserv.nyc.gov/NYCServWeb/ShowImage?searchID=VFZSUk0wMTZSVFJPYWxGM1RuYzlQUT09&locationName=_____________________),Wednesday,2021,9,8,"107 THOMSON ,   , NY",NA,2019,40.7258857,-74.0022225
47BG12,NY,PAS,1474367203,2021-08-22,12,35A,FIRE HYDRANT,NA,115,0,0,115,0,0,026,Manhattan,POLICE DEPARTMENT,ADMIN CLAIM GRANTED,View Summons (http://nycserv.nyc.gov/NYCServWeb/ShowImage?searchID=VFZSUk0wNUVUVEpPZWtsM1RYYzlQUT09&locationName=_____________________),Sunday,2021,8,22,"0 I/O W 130 ST ,  CONVENT AVE , NY",NA,0,40.81507,-73.952974
JBN4205,NY,PAS,1484244916,2021-09-25,18,38P,FIRE HYDRANT,NA,115,0,0,115,0,0,037,Manhattan,POLICE DEPARTMENT,ADMIN CLAIM GRANTED,View Summons (http://nycserv.nyc.gov/NYCServWeb/ShowImage?searchID=VFZSUk5FNUVTVEJPUkd0NFRtYzlQUT09&locationName=_____________________),Saturday,2021,9,25,"738 W 173 ST ,   , NY",NA,0,40.8460343,-73.9423274
80BG58,NY,PAS,2000667521,2021-09-30,9,00A,FIRE HYDRANT,NA,115,0,0,115,0,0,017,Manhattan,DEPARTMENT OF SANITATION,ADMIN CLAIM GRANTED,View Summons (http://nycserv.nyc.gov/NYCServWeb/ShowImage?searchID=VFdwQmQwMUVXVEpPZWxWNVRWRTlQUT09&locationName=_____________________),Thursday,2021,9,30,"453 EAST 58 STREET ,   , NY",MOPD,0,40.7582907,-73.9602516
41BG14,NY,PAS,2003124755,2021-10-27,3,22A,FIRE HYDRANT,NA,115,0,0,115,0,0,104,Queens,DEPARTMENT OF SANITATION,ADMIN CLAIM GRANTED,View Summons (http://nycserv.nyc.gov/NYCServWeb/ShowImage?searchID=VFdwQmQwMTZSWGxPUkdNeFRsRTlQUT09&locationName=_____________________),Wednesday,2021,10,27,"512 FAIRVIEW AVENUE ,   , NY",MOPD,0,40.708198,-73.9085606
KGL4999,NY,PAS,8943089065,2021-08-19,13,22P,FIRE HYDRANT,NA,115,0,0,115,0,0,019,Manhattan,TRAFFIC,ADMIN CLAIM GRANTED,View Summons (http://nycserv.nyc.gov/NYCServWeb/ShowImage?searchID=VDBSck1FMTZRVFJQVkVFeVRsRTlQUT09&locationName=_____________________),Thursday,2021,8,19,"W 3rd Ave ,  6ft S/of E 91st St , NY",SUBN,2008,40.761263,-73.9668152
HPZ4088,NY,PAS,1481934820,2021-07-11,2,35A,FIRE HYDRANT,NA,115,0,0,115,0,0,115,Queens,POLICE DEPARTMENT,ADMIN CLAIM GRANTED,View Summons (http://nycserv.nyc.gov/NYCServWeb/ShowImage?searchID=VFZSUk5FMVVhM3BPUkdkNVRVRTlQUT09&locationName=_____________________),Sunday,2021,7,11,"33-24 104 STREET ,   , NY",SDN,0,40.7569204,-73.864683
HMU8968,NY,PAS,1484367741,2021-07-18,1,10A,FIRE HYDRANT,NA,115,0,0,115,0,0,000,Queens,POLICE DEPARTMENT,ADMIN CLAIM GRANTED,View Summons (http://nycserv.nyc.gov/NYCServWeb/ShowImage?searchID=VFZSUk5FNUVUVEpPZW1Nd1RWRTlQUT09&locationName=_____________________),Sunday,2021,7,18,"71-43 71 ST ,   , NY",SUBN,2016,40.7033793,-73.8803748
HVK4494,NY,PAS,1484106120,2021-06-25,22,42P,FIRE HYDRANT,NA,115,0,0,115,0,0,043,Bronx,OTHER/UNKNOWN AGENCIES,ADMIN CLAIM GRANTED,View Summons (http://nycserv.nyc.gov/NYCServWeb/ShowImage?searchID=VFZSUk5FNUVSWGRPYWtWNVRVRTlQUT09&locationName=_____________________),Friday,2021,6,25,"99 METROPOLITAN OVAL ,   , NY",NA,2021,40.8383764,-73.8609732
HNW6392,NY,PAS,1484354473,2021-08-01,12,16A,FIRE HYDRANT,NA,115,0,0,115,0,0,104,Manhattan,POLICE DEPARTMENT,ADMIN CLAIM GRANTED,View Summons (http://nycserv.nyc.gov/NYCServWeb/ShowImage?searchID=VFZSUk5FNUVUVEZPUkZFelRYYzlQUT09&locationName=_____________________),Sunday,2021,8,1,"2201 HIMROD STREET ,   , NY",SDN,2016,40.712049,-73.908147
KLW2888,NY,PAS,2002863659,2021-08-16,11,54A,FIRE HYDRANT,NA,115,0,0,115,0,0,110,Queens,DEPARTMENT OF SANITATION,ADMIN CLAIM GRANTED,View Summons (http://nycserv.nyc.gov/NYCServWeb/ShowImage?searchID=VFdwQmQwMXFaekpOZWxreFQxRTlQUT09&locationName=_____________________),Monday,2021,8,16,"80-42 47 AVENUE ,   , NY",4DSD,0,40.7406243,-73.8833238
GKN1910,NY,PAS,8787945551,2021-07-09,9,51A,FIRE HYDRANT,NA,115,0,0,115,0,0,122,Staten Island,TRAFFIC,ADMIN CLAIM GRANTED,View Summons (http://nycserv.nyc.gov/NYCServWeb/ShowImage?searchID=VDBSak5FNTZhekJPVkZVeFRWRTlQUT09&locationName=_____________________),Friday,2021,7,9,"349 Thomas St ,   , NY",4DSD,2012,40.5695542,-74.1397318
JAZ9174,NY,PAS,8983436918,2021-09-15,9,16A,FIRE HYDRANT,NA,115,0,0,115,0,0,078,Brooklyn,TRAFFIC,ADMIN CLAIM GRANTED,View Summons (http://nycserv.nyc.gov/NYCServWeb/ShowImage?searchID=VDBSck5FMTZVWHBPYW10NFQwRTlQUT09&locationName=_____________________),Wednesday,2021,9,15,"463 5th Ave ,   , NY",SUBN,2018,40.7522217,-73.9813552
JKB1426,NY,PAS,8955713745,2021-09-29,20,43P,FIRE HYDRANT,NA,115,0,0,115,0,0,030,Manhattan,TRAFFIC,ADMIN CLAIM GRANTED,View Summons (http://nycserv.nyc.gov/NYCServWeb/ShowImage?searchID=VDBSck1VNVVZM2hOZW1Nd1RsRTlQUT09&locationName=_____________________),Wednesday,2021,9,29,"527 W 143rd St ,   , NY",4DSD,2017,40.8249549,-73.9503789
GRN4977,NY,PAS,8976258812,2021-07-18,8,23A,FIRE HYDRANT,NA,115,0,0,0,115,0,063,Brooklyn,TRAFFIC,APPEAL ABANDONED,View Summons (http://nycserv.nyc.gov/NYCServWeb/ShowImage?searchID=VDBSck0wNXFTVEZQUkdkNFRXYzlQUT09&locationName=_____________________),Sunday,2021,7,18,"994 E 31st St ,   , NY",4DSD,2013,40.626992,-73.9461974
KGR8576,NY,PAS,8881112966,2021-09-17,2,31A,FIRE HYDRANT,NA,115,0,0,0,0,115,023,Manhattan,TRAFFIC,APPEAL ABANDONED,View Summons (http://nycserv.nyc.gov/NYCServWeb/ShowImage?searchID=VDBSbk5FMVVSWGhOYW1zeVRtYzlQUT09&locationName=_____________________),Friday,2021,9,17,"335 E 111th St ,   , NY",4DSD,2009,40.7931091,-73.9380487
GST9785,NY,PAS,8921625732,2021-07-23,13,55P,FIRE HYDRANT,NA,115,0,0,0,0,115,005,Manhattan,TRAFFIC,APPEAL ABANDONED,View Summons (http://nycserv.nyc.gov/NYCServWeb/ShowImage?searchID=VDBScmVVMVVXWGxPVkdONlRXYzlQUT09&locationName=_____________________),Friday,2021,7,23,"215 Centre St ,   , NY",4DSD,2014,40.7194599,-73.9991797
GUZ8896,NY,PAS,8942483306,2021-09-09,6,35A,FIRE HYDRANT,NA,115,0,0,0,0,115,028,Manhattan,TRAFFIC,APPEAL ABANDONED,View Summons (http://nycserv.nyc.gov/NYCServWeb/ShowImage?searchID=VDBSck1FMXFVVFJOZWsxM1RtYzlQUT09&locationName=_____________________),Thursday,2021,9,9,"145 W 131st St ,   , NY",SUBN,2021,40.812458,-73.94425
HXY4736,NY,PAS,8951024234,2021-07-18,8,20A,FIRE HYDRANT,NA,115,0,0,0,115,0,024,Manhattan,TRAFFIC,APPEAL AFFIRMED,View Summons (http://nycserv.nyc.gov/NYCServWeb/ShowImage?searchID=VDBSck1VMVVRWGxPUkVsNlRrRTlQUT09&locationName=_____________________),Sunday,2021,7,18,"318 W 88th St ,   , NY",SUBN,2018,40.79043,-73.9779869
JEG2597,NY,PAS,8943777553,2021-07-23,24,00P,FIRE HYDRANT,NA,115,0,0,0,115,0,019,Manhattan,TRAFFIC,APPEAL AFFIRMED,View Summons (http://nycserv.nyc.gov/NYCServWeb/ShowImage?searchID=VDBSck1FMTZZek5PZWxVeFRYYzlQUT09&locationName=_____________________),Friday,2021,7,23,"213 E 88th St ,   , NY",SUBN,2018,40.7799616,-73.952032
BCT7978,NY,PAS,8912507989,2021-07-31,8,27A,FIRE HYDRANT,NA,115,0,0,0,115,0,014,Manhattan,TRAFFIC,APPEAL AFFIRMED,View Summons (http://nycserv.nyc.gov/NYCServWeb/ShowImage?searchID=VDBScmVFMXFWWGRPZW1zMFQxRTlQUT09&locationName=_____________________),Saturday,2021,7,31,"9 E 29th St ,   , NY",SUBN,2016,40.745362,-73.9864412
JCG3189,NY,PAS,8986883880,2021-07-06,8,57A,FIRE HYDRANT,NA,115,0,0,0,115,0,083,Brooklyn,TRAFFIC,APPEAL AFFIRMED,View Summons (http://nycserv.nyc.gov/NYCServWeb/ShowImage?searchID=VDBSck5FNXFaelJOZW1jMFRVRTlQUT09&locationName=_____________________),Tuesday,2021,7,6,"1421 Hancock St ,   , NY",4DSD,2009,40.6962331,-73.9075299
CBU6302,NY,PAS,8883374198,2021-09-09,16,20P,FIRE HYDRANT,NA,115,0,0,0,115,0,114,Queens,TRAFFIC,APPEAL AFFIRMED,View Summons (http://nycserv.nyc.gov/NYCServWeb/ShowImage?searchID=VDBSbk5FMTZUVE5PUkVVMVQwRTlQUT09&locationName=_____________________),Thursday,2021,9,9,"N 37th Ave ,  10ft E/of 60th St , NY",SUBN,2006,40.7500477,-73.881523
KEN8299,NY,PAS,8963922923,2021-09-29,14,12P,FIRE HYDRANT,NA,115,0,0,0,115,0,049,Bronx,TRAFFIC,APPEAL AFFIRMED,View Summons (http://nycserv.nyc.gov/NYCServWeb/ShowImage?searchID=VDBSck1rMTZhM2xOYW10NVRYYzlQUT09&locationName=_____________________),Wednesday,2021,9,29,"W Radcliff Ave ,  20ft S/of Morris Par , NY",4DSD,2018,40.8477289,-73.8570884
HVY5881,NY,PAS,8996526678,2021-09-30,21,49P,FIRE HYDRANT,NA,115,0,0,0,115,0,062,Brooklyn,TRAFFIC,APPEAL AFFIRMED,View Summons (http://nycserv.nyc.gov/NYCServWeb/ShowImage?searchID=VDBSck5VNXFWWGxPYWxrelQwRTlQUT09&locationName=_____________________),Thursday,2021,9,30,"2203 Emmons Ave ,   , NY",4DSD,2018,40.5841857,-73.945961
HEB7736,NY,PAS,1483313748,2021-08-29,21,36P,FIRE HYDRANT,NA,115,0,0,0,0,115,049,Bronx,POLICE DEPARTMENT,APPEAL AFFIRMED,View Summons (http://nycserv.nyc.gov/NYCServWeb/ShowImage?searchID=VFZSUk5FMTZUWGhOZW1Nd1QwRTlQUT09&locationName=_____________________),Sunday,2021,8,29,"1415 ALLERTON AVENUE ,   , NY",SDN,2015,40.8654763,-73.8454212
HRJ1770,NY,PAS,1483281152,2021-08-20,2,00A,FIRE HYDRANT,NA,115,0,0,0,115,0,045,Bronx,POLICE DEPARTMENT,APPEAL AFFIRMED,View Summons (http://nycserv.nyc.gov/NYCServWeb/ShowImage?searchID=VFZSUk5FMTZTVFJOVkVVeFRXYzlQUT09&locationName=_____________________),Friday,2021,8,20,"817 QUINCY AVE ,   , NY",SUBN,2014,40.826991,-73.8268928
HEB7736,NY,PAS,1483315708,2021-06-24,22,49P,FIRE HYDRANT,NA,115,0,0,0,0,115,049,Bronx,POLICE DEPARTMENT,APPEAL AFFIRMED,View Summons (http://nycserv.nyc.gov/NYCServWeb/ShowImage?searchID=VFZSUk5FMTZUWGhPVkdOM1QwRTlQUT09&locationName=_____________________),Thursday,2021,6,24,"1415 ALLERTON AVE ,   , NY",SDN,2015,40.8654763,-73.8454212
KEX4016,NY,PAS,2002703279,2021-07-29,9,30A,FIRE HYDRANT,NA,115,0,0,0,0,115,040,Bronx,DEPARTMENT OF SANITATION,APPEAL AFFIRMED,View Summons (http://nycserv.nyc.gov/NYCServWeb/ShowImage?searchID=VFdwQmQwMXFZM2ROZWtrelQxRTlQUT09&locationName=_____________________),Thursday,2021,7,29,"0 N/S of EAST 160 STRE ,  ET 100' W/O TRINITY , NY",SUBN,2016,40.8097006,-73.9518074
HEA5772,NY,PAS,8796045267,2021-07-05,14,29P,FIRE HYDRANT,NA,115,0,0,0,115,0,115,Queens,TRAFFIC,APPEAL AFFIRMED,View Summons (http://nycserv.nyc.gov/NYCServWeb/ShowImage?searchID=VDBSak5VNXFRVEJPVkVreVRuYzlQUT09&locationName=_____________________),Monday,2021,7,5,"89-01 Roosevelt Ave ,   , NY",SUBN,2018,40.748591,-73.877298
HHC6911,NY,PAS,8811245138,2021-07-09,7,57A,FIRE HYDRANT,NA,115,0,0,0,115,0,123,Staten Island,TRAFFIC,APPEAL AFFIRMED,View Summons (http://nycserv.nyc.gov/NYCServWeb/ShowImage?searchID=VDBSbmVFMVVTVEJPVkVWNlQwRTlQUT09&locationName=_____________________),Friday,2021,7,9,"123 Cardiff St ,   , NY",SUBN,2017,40.546639,-74.197745
HSE7740,NY,PAS,8829478076,2021-07-19,6,48A,FIRE HYDRANT,NA,115,0,0,0,115,0,100,Queens,TRAFFIC,APPEAL AFFIRMED,View Summons (http://nycserv.nyc.gov/NYCServWeb/ShowImage?searchID=VDBSbmVVOVVVVE5QUkVFelRtYzlQUT09&locationName=_____________________),Monday,2021,7,19,"W Beach 77th St ,  45ft N/of Beach Chan , NY",SUBN,2021,40.5883155,-73.8043362
HJL8529,NY,PAS,8931688398,2021-07-10,8,40A,FIRE HYDRANT,NA,115,0,0,0,115,0,018,Manhattan,TRAFFIC,APPEAL AFFIRMED,View Summons (http://nycserv.nyc.gov/NYCServWeb/ShowImage?searchID=VDBScmVrMVVXVFJQUkUwMVQwRTlQUT09&locationName=_____________________),Saturday,2021,7,10,"N W 59th St ,  25ft W/of 10th Ave , NY",SUBN,2019,40.7428202,-74.0077185
HWB1118,NY,PAS,8751197893,2021-10-16,6,37A,FIRE HYDRANT,NA,115,0,0,0,0,115,046,Bronx,TRAFFIC,APPEAL AFFIRMED,View Summons (http://nycserv.nyc.gov/NYCServWeb/ShowImage?searchID=VDBSak1VMVVSVFZPZW1jMVRYYzlQUT09&locationName=_____________________),Saturday,2021,10,16,"W Creston Ave ,  5ft S/of E 179th St , NY",SUBN,0,40.8608531,-73.8991836
HKM2782,NY,PAS,8785672191,2021-09-16,6,11A,FIRE HYDRANT,NA,115,0,0,0,115,0,103,Queens,TRAFFIC,APPEAL AFFIRMED,View Summons (http://nycserv.nyc.gov/NYCServWeb/ShowImage?searchID=VDBSak5FNVVXVE5OYWtVMVRWRTlQUT09&locationName=_____________________),Thursday,2021,9,16,"N 89th Ave ,  1ft W/of 201st St , NY",4DSD,2005,40.7105459,-73.7871163
EJT1975,NY,PAS,8796646950,2021-10-12,13,17P,FIRE HYDRANT,NA,115,0,0,0,115,0,106,Queens,TRAFFIC,APPEAL AFFIRMED,View Summons (http://nycserv.nyc.gov/NYCServWeb/ShowImage?searchID=VDBSak5VNXFXVEJPYW1zeFRVRTlQUT09&locationName=_____________________),Tuesday,2021,10,12,"149-48 Raleigh St ,   , NY",4DSD,2020,40.6695486,-73.8371164
KPH7151,NY,PAS,8823030717,2021-07-27,6,04A,FIRE HYDRANT,NA,115,0,0,0,115,0,032,Manhattan,TRAFFIC,APPEAL AFFIRMED,View Summons (http://nycserv.nyc.gov/NYCServWeb/ShowImage?searchID=VDBSbmVVMTZRWHBOUkdONFRuYzlQUT09&locationName=_____________________),Tuesday,2021,7,27,"N W 143rd St ,  30ft W/of Adam Clayt , NY",4DSD,2021,40.821956900000004,-73.9438284
EWU5610,NY,PAS,8790759643,2021-09-01,14,24P,FIRE HYDRANT,NA,115,0,0,0,0,115,020,Manhattan,TRAFFIC,APPEAL AFFIRMED,View Summons (http://nycserv.nyc.gov/NYCServWeb/ShowImage?searchID=VDBSak5VMUVZekZQVkZrd1RYYzlQUT09&locationName=_____________________),Wednesday,2021,9,1,"25 W 64th St ,   , NY",4DSD,2010,40.7718049,-73.9806843
HTD3427,NY,PAS,8796049935,2021-07-30,15,23P,FIRE HYDRANT,NA,115,0,0,0,0,115,115,Queens,TRAFFIC,APPEAL AFFIRMED,View Summons (http://nycserv.nyc.gov/NYCServWeb/ShowImage?searchID=VDBSak5VNXFRVEJQVkd0NlRsRTlQUT09&locationName=_____________________),Friday,2021,7,30,"82-19 83rd St ,   , NY",4DSD,2017,40.7187705,-73.8700581
KRB7470,NY,PAS,8796046480,2021-07-10,24,48P,FIRE HYDRANT,NA,115,0,0,0,115,0,115,Queens,TRAFFIC,APPEAL AFFIRMED,View Summons (http://nycserv.nyc.gov/NYCServWeb/ShowImage?searchID=VDBSak5VNXFRVEJPYWxFMFRVRTlQUT09&locationName=_____________________),Saturday,2021,7,10,"93-19 94th St ,   , NY",SUBN,2019,40.752970500000004,-73.8735114
GMS2457,NY,PAS,8820549256,2021-09-27,14,25P,FIRE HYDRANT,NA,115,0,0,0,0,115,104,Queens,TRAFFIC,APPEAL AFFIRMED,View Summons (http://nycserv.nyc.gov/NYCServWeb/ShowImage?searchID=VDBSbmVVMUVWVEJQVkVreFRtYzlQUT09&locationName=_____________________),Monday,2021,9,27,"57-18 69th Pl ,   , NY",4DSD,0,40.725732,-73.894499
EVG7809,NY,PAS,8840434549,2021-07-07,6,58A,FIRE HYDRANT,NA,115,0,0,0,115,0,102,Queens,TRAFFIC,APPEAL AFFIRMED,View Summons (http://nycserv.nyc.gov/NYCServWeb/ShowImage?searchID=VDBSbk1FMUVVWHBPUkZVd1QxRTlQUT09&locationName=_____________________),Wednesday,2021,7,7,"8385 116th St ,   , NY",4DSD,2015,40.7040496,-73.8353707
JPH4142,NY,PAS,8854782312,2021-09-28,15,45P,FIRE HYDRANT,NA,115,0,0,0,115,0,019,Manhattan,TRAFFIC,APPEAL AFFIRMED,View Summons (http://nycserv.nyc.gov/NYCServWeb/ShowImage?searchID=VDBSbk1VNUVZelJOYWsxNFRXYzlQUT09&locationName=_____________________),Tuesday,2021,9,28,"168 E 95th St ,   , NY",SUBN,2020,40.784763,-73.9508521
KMN3913,NY,PAS,8897734406,2021-07-16,15,59P,FIRE HYDRANT,NA,115,0,0,0,115,0,009,Manhattan,TRAFFIC,APPEAL AFFIRMED,View Summons (http://nycserv.nyc.gov/NYCServWeb/ShowImage?searchID=VDBSbk5VNTZZM3BPUkZGM1RtYzlQUT09&locationName=_____________________),Friday,2021,7,16,"232 E 11th St ,   , NY",4DSD,2008,40.7306066,-73.987304
GTE1144,NY,PAS,8839943213,2021-07-14,7,24A,FIRE HYDRANT,NA,115,0,0,0,115,0,107,Queens,TRAFFIC,APPEAL AFFIRMED,View Summons (http://nycserv.nyc.gov/NYCServWeb/ShowImage?searchID=VDBSbmVrOVVhekJOZWtsNFRYYzlQUT09&locationName=_____________________),Wednesday,2021,7,14,"W 82nd Dr ,  20ft S/of Parsons Bl , NY",SUBN,2018,40.7851039,-73.9769031
EWB2085,NY,PAS,8848843025,2021-10-14,8,48A,FIRE HYDRANT,NA,115,0,0,0,0,115,109,Queens,TRAFFIC,APPEAL AFFIRMED,View Summons (http://nycserv.nyc.gov/NYCServWeb/ShowImage?searchID=VDBSbk1FOUVaekJOZWtGNVRsRTlQUT09&locationName=_____________________),Thursday,2021,10,14,"W 169th St ,  20ft S/of 17th Rd , NY",SUBN,2015,40.8402731,-73.9273962
JPK7133,NY,PAS,8855706780,2021-08-10,11,05A,FIRE HYDRANT,NA,115,0,0,0,115,0,112,Queens,TRAFFIC,APPEAL AFFIRMED,View Summons (http://nycserv.nyc.gov/NYCServWeb/ShowImage?searchID=VDBSbk1VNVVZM2RPYW1NMFRVRTlQUT09&locationName=_____________________),Tuesday,2021,8,10,"71-18 Austin St ,   , NY",SUBN,2020,40.7196868,-73.8442537
EVR1762,NY,PAS,8843621567,2021-09-14,21,14P,FIRE HYDRANT,NA,115,0,0,0,115,0,019,Manhattan,TRAFFIC,APPEAL AFFIRMED,View Summons (http://nycserv.nyc.gov/NYCServWeb/ShowImage?searchID=VDBSbk1FMTZXWGxOVkZVeVRuYzlQUT09&locationName=_____________________),Tuesday,2021,9,14,"E 1st Ave ,  70ft N/of E 80th St , NY",SUBN,2018,40.775688,-73.958154
HFL1637,NY,PAS,8856485679,2021-08-23,6,33A,FIRE HYDRANT,NA,115,0,0,0,0,115,075,Brooklyn,TRAFFIC,APPEAL AFFIRMED,View Summons (http://nycserv.nyc.gov/NYCServWeb/ShowImage?searchID=VDBSbk1VNXFVVFJPVkZrelQxRTlQUT09&locationName=_____________________),Monday,2021,8,23,"300 Wortman Ave ,   , NY",4DSD,2019,40.6578562,-73.8818157
JKP4977,NY,PAS,8856493639,2021-09-22,6,09A,FIRE HYDRANT,NA,115,0,0,0,0,115,062,Brooklyn,TRAFFIC,APPEAL AFFIRMED,View Summons (http://nycserv.nyc.gov/NYCServWeb/ShowImage?searchID=VDBSbk1VNXFVVFZOZWxsNlQxRTlQUT09&locationName=_____________________),Wednesday,2021,9,22,"42 Bay 34th St ,   , NY",SUBN,2003,40.5993987,-73.9918869
KEE9157,NY,PAS,8858831469,2021-09-18,7,32A,FIRE HYDRANT,NA,115,0,0,0,0,115,032,Manhattan,TRAFFIC,APPEAL AFFIRMED,View Summons (http://nycserv.nyc.gov/NYCServWeb/ShowImage?searchID=VDBSbk1VOUVaM3BOVkZFeVQxRTlQUT09&locationName=_____________________),Saturday,2021,9,18,"611 Lenox Ave ,   , NY",SUBN,2011,40.8178207,-73.9384804
GAX4928,NY,PAS,8898823502,2021-07-26,8,07A,FIRE HYDRANT,NA,115,0,0,0,115,0,009,Manhattan,TRAFFIC,APPEAL AFFIRMED,View Summons (http://nycserv.nyc.gov/NYCServWeb/ShowImage?searchID=VDBSbk5VOUVaM2xOZWxWM1RXYzlQUT09&locationName=_____________________),Monday,2021,7,26,"500 E 11th St ,   , NY",SUBN,2007,40.72828,-73.9816278
KKR3979,NY,PAS,8946734814,2021-07-28,14,04P,FIRE HYDRANT,NA,115,0,0,0,115,0,024,Manhattan,TRAFFIC,APPEAL AFFIRMED,View Summons (http://nycserv.nyc.gov/NYCServWeb/ShowImage?searchID=VDBSck1FNXFZM3BPUkdkNFRrRTlQUT09&locationName=_____________________),Wednesday,2021,7,28,"2707 Broadway ,   , NY",4DSD,2010,40.7995038,-73.968717
KMC7966,NY,PAS,8947472864,2021-07-26,10,01A,FIRE HYDRANT,NA,115,0,0,0,115,0,028,Manhattan,TRAFFIC,APPEAL AFFIRMED,View Summons (http://nycserv.nyc.gov/NYCServWeb/ShowImage?searchID=VDBSck1FNTZVVE5OYW1jeVRrRTlQUT09&locationName=_____________________),Monday,2021,7,26,"320 W 111th St ,   , NY",CONV,2008,40.8016005,-73.9589176
HZA5306,NY,PAS,8901656152,2021-07-30,8,40A,FIRE HYDRANT,NA,115,0,0,0,115,0,094,Brooklyn,TRAFFIC,APPEAL AFFIRMED,View Summons (http://nycserv.nyc.gov/NYCServWeb/ShowImage?searchID=VDBScmQwMVVXVEZPYWtVeFRXYzlQUT09&locationName=_____________________),Friday,2021,7,30,"133 Sutton St ,   , NY",SUBN,2018,40.7271563,-73.9412179
GPK7271,NY,PAS,8904219838,2021-07-27,13,59P,FIRE HYDRANT,NA,115,0,0,0,115,0,107,Queens,TRAFFIC,APPEAL AFFIRMED,View Summons (http://nycserv.nyc.gov/NYCServWeb/ShowImage?searchID=VDBScmQwNUVTWGhQVkdkNlQwRTlQUT09&locationName=_____________________),Tuesday,2021,7,27,"72-48 Main St ,   , NY",SUBN,2017,40.7253357,-73.8214877
KLT7337,NY,PAS,8905455372,2021-10-05,0,17A,FIRE HYDRANT,NA,115,0,0,0,115,0,075,Brooklyn,TRAFFIC,APPEAL AFFIRMED,View Summons (http://nycserv.nyc.gov/NYCServWeb/ShowImage?searchID=VDBScmQwNVVVVEZPVkUwelRXYzlQUT09&locationName=_____________________),Tuesday,2021,10,5,"2319 Strauss St ,   , NY",4DSD,2021,40.6569743,-73.9131252
KKD1329,NY,PAS,8955671489,2021-07-07,22,03P,FIRE HYDRANT,NA,115,0,0,0,115,0,033,Manhattan,TRAFFIC,APPEAL AFFIRMED,View Summons (http://nycserv.nyc.gov/NYCServWeb/ShowImage?searchID=VDBSck1VNVVXVE5OVkZFMFQxRTlQUT09&locationName=_____________________),Wednesday,2021,7,7,"574 W 176th St ,   , NY",4DSD,2017,40.8455662,-73.93532
JMS1067,NY,PAS,8944744889,2021-08-31,16,08P,FIRE HYDRANT,NA,115,0,0,0,115,0,019,Manhattan,TRAFFIC,APPEAL AFFIRMED,View Summons (http://nycserv.nyc.gov/NYCServWeb/ShowImage?searchID=VDBSck1FNUVZekJPUkdjMFQxRTlQUT09&locationName=_____________________),Tuesday,2021,8,31,"238 E 95th St ,   , NY",2DSD,2014,40.7835844,-73.947945
HNH2210,NY,PAS,8921478255,2021-07-31,13,46P,FIRE HYDRANT,NA,115,0,0,0,115,0,001,Manhattan,TRAFFIC,APPEAL AFFIRMED,View Summons (http://nycserv.nyc.gov/NYCServWeb/ShowImage?searchID=VDBScmVVMVVVVE5QUkVreFRsRTlQUT09&locationName=_____________________),Saturday,2021,7,31,"S W Houston St ,  10ft E/of Wooster St , NY",SUBN,2016,40.7280353,-74.0030307
JDS4712,NY,PAS,8904317423,2021-08-25,8,45A,FIRE HYDRANT,NA,115,0,0,0,115,0,115,Queens,TRAFFIC,APPEAL AFFIRMED,View Summons (http://nycserv.nyc.gov/NYCServWeb/ShowImage?searchID=VDBScmQwNUVUWGhPZWxGNVRYYzlQUT09&locationName=_____________________),Wednesday,2021,8,25,"35-54 80th St ,   , NY",SUBN,2018,40.750015,-73.886533
KHA4157,NY,PAS,8889185170,2021-09-27,8,59A,FIRE HYDRANT,NA,115,0,0,0,0,115,103,Queens,TRAFFIC,APPEAL AFFIRMED,View Summons (http://nycserv.nyc.gov/NYCServWeb/ShowImage?searchID=VDBSbk5FOVVSVFJPVkVVelRVRTlQUT09&locationName=_____________________),Monday,2021,9,27,"155-02 90th Ave ,   , NY",4DSD,2011,40.7044365,-73.8017536
HTM3612,NY,PAS,8949320629,2021-07-12,13,15P,FIRE HYDRANT,NA,115,0,0,0,115,0,028,Manhattan,TRAFFIC,APPEAL AFFIRMED,View Summons (http://nycserv.nyc.gov/NYCServWeb/ShowImage?searchID=VDBSck1FOVVUWGxOUkZsNVQxRTlQUT09&locationName=_____________________),Monday,2021,7,12,"366 W 116th St ,   , NY",SUBN,2010,40.8051311,-73.9575964
JNB4748,NY,PAS,8895919786,2021-10-20,7,07A,FIRE HYDRANT,NA,115,0,0,0,0,115,069,Brooklyn,TRAFFIC,APPEAL AFFIRMED,View Summons (http://nycserv.nyc.gov/NYCServWeb/ShowImage?searchID=VDBSbk5VNVVhM2hQVkdNMFRtYzlQUT09&locationName=_____________________),Wednesday,2021,10,20,"1616 E 92nd St ,   , NY",SUBN,0,40.6325577,-73.8951952
KGK6698,NY,PAS,8896702665,2021-08-02,7,22A,FIRE HYDRANT,NA,115,0,0,0,0,115,040,Bronx,TRAFFIC,APPEAL AFFIRMED,View Summons (http://nycserv.nyc.gov/NYCServWeb/ShowImage?searchID=VDBSbk5VNXFZM2ROYWxreVRsRTlQUT09&locationName=_____________________),Monday,2021,8,2,"525 Jackson Ave ,   , NY",4DSD,2006,40.8126453,-73.9095738
KLU1352,NY,PAS,8890165777,2021-07-21,9,46A,FIRE HYDRANT,NA,115,0,0,0,115,0,109,Queens,TRAFFIC,APPEAL AFFIRMED,View Summons (http://nycserv.nyc.gov/NYCServWeb/ShowImage?searchID=VDBSbk5VMUVSVEpPVkdNelRuYzlQUT09&locationName=_____________________),Wednesday,2021,7,21,"E Parsons Blvd ,  35ft S/of Sanford Av , NY",2DSD,1999,40.772356,-73.8246832
HBT8740,NY,PAS,8901604723,2021-08-12,15,19P,FIRE HYDRANT,NA,115,0,0,0,0,115,114,Queens,TRAFFIC,APPEAL AFFIRMED,View Summons (http://nycserv.nyc.gov/NYCServWeb/ShowImage?searchID=VDBScmQwMVVXWGRPUkdONVRYYzlQUT09&locationName=_____________________),Thursday,2021,8,12,"22-64 29th St ,   , NY",SUBN,2017,40.7756316,-73.9134434
HSK5268,NY,PAS,8905460021,2021-10-25,5,58A,FIRE HYDRANT,NA,115,0,0,0,0,115,069,Brooklyn,TRAFFIC,APPEAL AFFIRMED,View Summons (http://nycserv.nyc.gov/NYCServWeb/ShowImage?searchID=VDBScmQwNVVVVEpOUkVGNVRWRTlQUT09&locationName=_____________________),Monday,2021,10,25,"9204 Avenue N ,   , NY",SUBN,2015,40.6329662,-73.8950991
DSZ3612,NY,PAS,8906176296,2021-09-28,10,30A,FIRE HYDRANT,NA,115,0,0,0,0,115,075,Brooklyn,TRAFFIC,APPEAL AFFIRMED,View Summons (http://nycserv.nyc.gov/NYCServWeb/ShowImage?searchID=VDBScmQwNXFSVE5PYWtrMVRtYzlQUT09&locationName=_____________________),Tuesday,2021,9,28,"570 Vandalia Ave ,   , NY",SUBN,2006,40.6562513,-73.8715051
JPW3893,NY,PAS,8909532324,2021-08-16,24,46P,FIRE HYDRANT,NA,115,0,0,0,0,115,010,Manhattan,TRAFFIC,APPEAL AFFIRMED,View Summons (http://nycserv.nyc.gov/NYCServWeb/ShowImage?searchID=VDBScmQwOVVWWHBOYWsxNVRrRTlQUT09&locationName=_____________________),Monday,2021,8,16,"460 W 20th St ,   , NY",4DSD,2014,40.7454845,-74.0053892
JPW3893,NY,PAS,8909532490,2021-08-17,8,27A,FIRE HYDRANT,NA,115,0,0,0,0,115,010,Manhattan,TRAFFIC,APPEAL AFFIRMED,View Summons (http://nycserv.nyc.gov/NYCServWeb/ShowImage?searchID=VDBScmQwOVVWWHBOYWxFMVRVRTlQUT09&locationName=_____________________),Tuesday,2021,8,17,"460 W 20th St ,   , NY",4DSD,2014,40.7454845,-74.0053892
JPW3893,NY,PAS,8909532981,2021-08-18,24,58P,FIRE HYDRANT,NA,115,0,0,0,0,115,010,Manhattan,TRAFFIC,APPEAL AFFIRMED,View Summons (http://nycserv.nyc.gov/NYCServWeb/ShowImage?searchID=VDBScmQwOVVWWHBOYW1zMFRWRTlQUT09&locationName=_____________________),Wednesday,2021,8,18,"460 W 20th St ,   , NY",4DSD,2014,40.7454845,-74.0053892
KFL9250,NY,PAS,8845236638,2021-10-01,9,56A,FIRE HYDRANT,NA,115,0,0,0,0,115,114,Queens,TRAFFIC,APPEAL AFFIRMED,View Summons (http://nycserv.nyc.gov/NYCServWeb/ShowImage?searchID=VDBSbk1FNVVTWHBPYWxsNlQwRTlQUT09&locationName=_____________________),Friday,2021,10,1,"W 58th Ln ,  320ft S/of 47th Ave , NY",4DSD,2016,40.7127753,-74.0059728
KDV4189,NY,PAS,8991530450,2021-08-17,13,21P,FIRE HYDRANT,NA,115,0,0,0,115,0,084,Brooklyn,TRAFFIC,APPEAL AFFIRMED,View Summons (http://nycserv.nyc.gov/NYCServWeb/ShowImage?searchID=VDBSck5VMVVWWHBOUkZFeFRVRTlQUT09&locationName=_____________________),Tuesday,2021,8,17,"N York St ,  15ft W/of Adams St , NY",4DSD,2003,40.7017361,-73.9883058
GZJ3006,NY,PAS,8996999970,2021-07-10,0,01A,FIRE HYDRANT,NA,115,0,0,0,115,0,060,Brooklyn,TRAFFIC,APPEAL AFFIRMED,View Summons (http://nycserv.nyc.gov/NYCServWeb/ShowImage?searchID=VDBSck5VNXFhelZQVkdzelRVRTlQUT09&locationName=_____________________),Saturday,2021,7,10,"577 Avenue Z ,   , NY",SUBN,2018,40.5862045,-73.9730304
KLW4967,NY,PAS,8862638980,2021-06-28,15,47P,FIRE HYDRANT,NA,115,0,0,0,115,0,114,Queens,TRAFFIC,APPEAL AFFIRMED,View Summons (http://nycserv.nyc.gov/NYCServWeb/ShowImage?searchID=VDBSbk1rMXFXWHBQUkdzMFRVRTlQUT09&locationName=_____________________),Monday,2021,6,28,"26-16 9th St ,   , NY",SUBN,2021,40.7750576,-73.9307873
GDP4650,NY,PAS,8863345790,2021-10-09,9,53A,FIRE HYDRANT,NA,115,0,0,0,115,0,104,Queens,TRAFFIC,APPEAL AFFIRMED,View Summons (http://nycserv.nyc.gov/NYCServWeb/ShowImage?searchID=VDBSbk1rMTZUVEJPVkdNMVRVRTlQUT09&locationName=_____________________),Saturday,2021,10,9,"5908 Flushing Ave ,   , NY",4DSD,2012,40.7184185,-73.9080218
HZF9803,NY,PAS,8906681185,2021-09-04,15,03P,FIRE HYDRANT,NA,115,0,0,0,115,0,115,Queens,TRAFFIC,APPEAL AFFIRMED,View Summons (http://nycserv.nyc.gov/NYCServWeb/ShowImage?searchID=VDBScmQwNXFXVFJOVkVVMFRsRTlQUT09&locationName=_____________________),Saturday,2021,9,4,"80-19 Roosevelt Ave ,   , NY",SUBN,2012,40.7477045,-73.8850659
KMB9301,NY,PAS,8868883934,2021-10-04,6,03A,FIRE HYDRANT,NA,115,0,0,0,115,0,107,Queens,TRAFFIC,APPEAL AFFIRMED,View Summons (http://nycserv.nyc.gov/NYCServWeb/ShowImage?searchID=VDBSbk1rOUVaelJOZW10NlRrRTlQUT09&locationName=_____________________),Monday,2021,10,4,"7540 150th St ,   , NY",4DSD,2019,40.724015,-73.815798
EXB8127,NY,PAS,8870877220,2021-09-09,10,48A,FIRE HYDRANT,NA,115,0,0,0,0,115,019,Manhattan,TRAFFIC,APPEAL AFFIRMED,View Summons (http://nycserv.nyc.gov/NYCServWeb/ShowImage?searchID=VDBSbk0wMUVaek5PZWtsNVRVRTlQUT09&locationName=_____________________),Thursday,2021,9,9,"100 E 96th St ,   , NY",SUBN,2010,40.7862479,-73.9522525
JAJ8982,NY,PAS,8896770221,2021-09-10,8,09A,FIRE HYDRANT,NA,115,0,0,0,115,0,006,Manhattan,TRAFFIC,APPEAL AFFIRMED,View Summons (http://nycserv.nyc.gov/NYCServWeb/ShowImage?searchID=VDBSbk5VNXFZek5OUkVsNVRWRTlQUT09&locationName=_____________________),Friday,2021,9,10,"632 Hudson St ,   , NY",SUBN,2019,40.7384446,-74.0052983
JDM5258,NY,PAS,8904074745,2021-09-08,16,31P,FIRE HYDRANT,NA,115,0,0,0,115,0,122,Staten Island,TRAFFIC,APPEAL AFFIRMED,View Summons (http://nycserv.nyc.gov/NYCServWeb/ShowImage?searchID=VDBScmQwNUVRVE5PUkdNd1RsRTlQUT09&locationName=_____________________),Wednesday,2021,9,8,"69 Eltingville Blvd ,   , NY",SUBN,2019,40.5462568,-74.1644455
KHF3455,NY,PAS,8880337749,2021-07-24,7,11A,FIRE HYDRANT,NA,115,0,0,0,115,0,105,Queens,TRAFFIC,APPEAL AFFIRMED,View Summons (http://nycserv.nyc.gov/NYCServWeb/ShowImage?searchID=VDBSbk5FMUVUWHBPZW1Nd1QxRTlQUT09&locationName=_____________________),Saturday,2021,7,24,"216-33 118th Ave ,   , NY",4DSD,2020,40.694407,-73.742731
JEJ7786,NY,PAS,8963390603,2021-08-23,24,14P,FIRE HYDRANT,NA,115,0,0,0,115,0,045,Bronx,TRAFFIC,APPEAL AFFIRMED,View Summons (http://nycserv.nyc.gov/NYCServWeb/ShowImage?searchID=VDBSck1rMTZUVFZOUkZsM1RYYzlQUT09&locationName=_____________________),Monday,2021,8,23,"1639 Hobart Ave ,   , NY",SUBN,2020,40.845182,-73.830305
GTM7175,NY,PAS,8924358698,2021-07-17,10,01A,FIRE HYDRANT,NA,115,0,0,0,0,115,033,Manhattan,TRAFFIC,APPEAL AFFIRMED,View Summons (http://nycserv.nyc.gov/NYCServWeb/ShowImage?searchID=VDBScmVVNUVUVEZQUkZrMVQwRTlQUT09&locationName=_____________________),Saturday,2021,7,17,"636 W 174th St ,   , NY",SUBN,2011,40.8453791,-73.9390652
KNF9741,NY,PAS,8946878277,2021-07-10,8,19A,FIRE HYDRANT,NA,115,0,0,0,115,0,028,Manhattan,TRAFFIC,APPEAL AFFIRMED,View Summons (http://nycserv.nyc.gov/NYCServWeb/ShowImage?searchID=VDBSck1FNXFaek5QUkVrelRuYzlQUT09&locationName=_____________________),Saturday,2021,7,10,"W Manhattan Ave ,  140ft S/of W 120th S , NY",4DSD,2018,40.8072091,-73.9539982
KFP2422,NY,PAS,8976408585,2021-08-04,9,46A,FIRE HYDRANT,NA,115,0,0,0,115,0,069,Brooklyn,TRAFFIC,APPEAL AFFIRMED,View Summons (http://nycserv.nyc.gov/NYCServWeb/ShowImage?searchID=VDBSck0wNXFVWGRQUkZVMFRsRTlQUT09&locationName=_____________________),Wednesday,2021,8,4,"766 Remsen Ave ,   , NY",SUBN,2002,40.6486309,-73.9157399
JMZ5070,NY,PAS,8902608682,2021-07-29,11,12A,FIRE HYDRANT,NA,115,0,0,0,0,115,102,Queens,TRAFFIC,APPEAL AFFIRMED,View Summons (http://nycserv.nyc.gov/NYCServWeb/ShowImage?searchID=VDBScmQwMXFXWGRQUkZrMFRXYzlQUT09&locationName=_____________________),Thursday,2021,7,29,"12310 Jamaica Ave ,   , NY",SUBN,2010,40.7004871,-73.8268955
ETM4943,NY,PAS,8943793248,2021-10-26,9,03A,FIRE HYDRANT,NA,115,0,0,0,0,115,024,Manhattan,TRAFFIC,APPEAL AFFIRMED,View Summons (http://nycserv.nyc.gov/NYCServWeb/ShowImage?searchID=VDBSck1FMTZZelZOZWtrd1QwRTlQUT09&locationName=_____________________),Tuesday,2021,10,26,"101 W 91st St ,   , NY",SUBN,2009,40.7900291,-73.9704389
KEX9589,NY,PAS,8968694746,2021-08-13,22,22P,FIRE HYDRANT,NA,115,0,0,0,115,0,044,Bronx,TRAFFIC,APPEAL AFFIRMED,View Summons (http://nycserv.nyc.gov/NYCServWeb/ShowImage?searchID=VDBSck1rOUVXVFZPUkdNd1RtYzlQUT09&locationName=_____________________),Friday,2021,8,13,"1020 Anderson Ave ,   , NY",4DSD,2011,40.8326434,-73.9265674
KJX3519,NY,PAS,8912456374,2021-07-17,7,35A,FIRE HYDRANT,NA,115,0,0,0,115,0,013,Manhattan,TRAFFIC,APPEAL AFFIRMED,View Summons (http://nycserv.nyc.gov/NYCServWeb/ShowImage?searchID=VDBScmVFMXFVVEZPYWswelRrRTlQUT09&locationName=_____________________),Saturday,2021,7,17,"155 W 23rd St ,   , NY",4DSD,2012,40.743953,-73.994592
KLM2202,NY,PAS,8958290468,2021-08-07,5,46A,FIRE HYDRANT,NA,115,0,0,0,115,0,049,Bronx,TRAFFIC,APPEAL AFFIRMED,View Summons (http://nycserv.nyc.gov/NYCServWeb/ShowImage?searchID=VDBSck1VOUVTVFZOUkZFeVQwRTlQUT09&locationName=_____________________),Saturday,2021,8,7,"N Barker Ave ,  40ft W/of Pelham Pkw , NY",SUBN,2015,40.8670304,-73.869186
GEK8040,NY,PAS,8973575594,2021-07-20,0,58A,FIRE HYDRANT,NA,115,0,0,0,115,0,070,Brooklyn,TRAFFIC,APPEAL AFFIRMED,View Summons (http://nycserv.nyc.gov/NYCServWeb/ShowImage?searchID=VDBSck0wMTZWVE5PVkZVMVRrRTlQUT09&locationName=_____________________),Tuesday,2021,7,20,"170 E 19th St ,   , NY",SUBN,2016,40.7363369,-73.9852344
CFR3312,NY,PAS,8992522174,2021-07-08,13,33P,FIRE HYDRANT,NA,115,0,0,0,115,0,090,Brooklyn,TRAFFIC,APPEAL AFFIRMED,View Summons (http://nycserv.nyc.gov/NYCServWeb/ShowImage?searchID=VDBSck5VMXFWWGxOYWtVelRrRTlQUT09&locationName=_____________________),Thursday,2021,7,8,"731 Wythe Ave ,   , NY",SUBN,2004,40.7007184,-73.9600967
KPJ1016,NY,PAS,8940865893,2021-09-16,15,08P,FIRE HYDRANT,NA,115,0,0,0,0,115,115,Queens,TRAFFIC,APPEAL AFFIRMED,View Summons (http://nycserv.nyc.gov/NYCServWeb/ShowImage?searchID=VDBSck1FMUVaekpPVkdjMVRYYzlQUT09&locationName=_____________________),Thursday,2021,9,16,"34-42 74th St ,   , NY",4DSD,2014,40.751637,-73.892518
GUR4067,NY,PAS,8941577688,2021-08-13,2,36A,FIRE HYDRANT,NA,115,0,0,0,0,115,028,Manhattan,TRAFFIC,APPEAL AFFIRMED,View Summons (http://nycserv.nyc.gov/NYCServWeb/ShowImage?searchID=VDBSck1FMVVWVE5PZWxrMFQwRTlQUT09&locationName=_____________________),Friday,2021,8,13,"161 W 120th St ,   , NY",4DSD,2010,40.8057232,-73.9502067
KPM2033,NY,PAS,8995369279,2021-09-03,11,48A,FIRE HYDRANT,NA,115,0,0,0,115,0,083,Brooklyn,TRAFFIC,APPEAL AFFIRMED,View Summons (http://nycserv.nyc.gov/NYCServWeb/ShowImage?searchID=VDBSck5VNVVUVEpQVkVrelQxRTlQUT09&locationName=_____________________),Friday,2021,9,3,"N Flushing Ave ,  60ft E/of Scott Ave , NY",SUBN,2011,40.7020774,-73.9363198
JGL3470,NY,PAS,8942244750,2021-09-08,5,14A,FIRE HYDRANT,NA,115,0,0,0,0,115,023,Manhattan,TRAFFIC,APPEAL AFFIRMED,View Summons (http://nycserv.nyc.gov/NYCServWeb/ShowImage?searchID=VDBSck1FMXFTVEJPUkdNeFRVRTlQUT09&locationName=_____________________),Wednesday,2021,9,8,"W Park Ave ,  10ft S/of E 113th St , NY",4DSD,2012,40.7955267,-73.9402431
KNP2888,NY,PAS,8944125843,2021-08-05,5,55A,FIRE HYDRANT,NA,115,0,0,0,0,115,028,Manhattan,TRAFFIC,APPEAL AFFIRMED,View Summons (http://nycserv.nyc.gov/NYCServWeb/ShowImage?searchID=VDBSck1FNUVSWGxPVkdjd1RYYzlQUT09&locationName=_____________________),Thursday,2021,8,5,"N W 129th St ,  60ft E/of Frederick , NY",4DSD,2004,40.7127753,-74.0059728
KGR5367,NY,PAS,8944230055,2021-07-26,11,25A,FIRE HYDRANT,NA,115,0,0,0,0,115,024,Manhattan,TRAFFIC,APPEAL AFFIRMED,View Summons (http://nycserv.nyc.gov/NYCServWeb/ShowImage?searchID=VDBSck1FNUVTWHBOUkVFeFRsRTlQUT09&locationName=_____________________),Monday,2021,7,26,"670 Columbus Ave ,   , NY",4DSD,2008,40.7907104,-73.9695098
JGL3470,NY,PAS,8944556556,2021-09-07,7,53A,FIRE HYDRANT,NA,115,0,0,0,0,115,023,Manhattan,TRAFFIC,APPEAL AFFIRMED,View Summons (http://nycserv.nyc.gov/NYCServWeb/ShowImage?searchID=VDBSck1FNUVWVEZPYWxVeFRtYzlQUT09&locationName=_____________________),Tuesday,2021,9,7,"W Park Ave ,  10ft S/of E 113th St , NY",4DSD,2012,40.7955267,-73.9402431
FDB3249,NY,PAS,8945336205,2021-08-02,7,43A,FIRE HYDRANT,NA,115,0,0,0,0,115,028,Manhattan,TRAFFIC,APPEAL AFFIRMED,View Summons (http://nycserv.nyc.gov/NYCServWeb/ShowImage?searchID=VDBSck1FNVVUWHBPYWtsM1RsRTlQUT09&locationName=_____________________),Monday,2021,8,2,"131 Central Park North ,   , NY",4DSD,2010,40.7988933,-73.9536201
HHM2141,NY,PAS,8946641691,2021-09-14,11,14A,FIRE HYDRANT,NA,115,0,0,0,0,115,019,Manhattan,TRAFFIC,APPEAL AFFIRMED,View Summons (http://nycserv.nyc.gov/NYCServWeb/ShowImage?searchID=VDBSck1FNXFXVEJOVkZrMVRWRTlQUT09&locationName=_____________________),Tuesday,2021,9,14,"1802 2nd Ave ,   , NY",SUBN,2015,40.7823762,-73.9481287
KPR1447,NY,PAS,8949329323,2021-08-04,15,34P,FIRE HYDRANT,NA,115,0,0,0,0,115,026,Manhattan,TRAFFIC,APPEAL AFFIRMED,View Summons (http://nycserv.nyc.gov/NYCServWeb/ShowImage?searchID=VDBSck1FOVVUWGxQVkUxNVRYYzlQUT09&locationName=_____________________),Wednesday,2021,8,4,"55 La Salle St ,   , NY",SUBN,2004,40.813333,-73.9571521
HNY3961,NY,PAS,8949534307,2021-08-03,14,41P,FIRE HYDRANT,NA,115,0,0,0,0,115,033,Manhattan,TRAFFIC,APPEAL AFFIRMED,View Summons (http://nycserv.nyc.gov/NYCServWeb/ShowImage?searchID=VDBSck1FOVVWWHBPUkUxM1RuYzlQUT09&locationName=_____________________),Tuesday,2021,8,3,"W Wadsworth Ave ,  20ft N/of W 174th St , NY",2DSD,2008,40.8509024,-73.9342035
KGE9649,NY,PAS,8949584750,2021-07-21,20,22P,FIRE HYDRANT,NA,115,0,0,0,0,115,020,Manhattan,TRAFFIC,APPEAL AFFIRMED,View Summons (http://nycserv.nyc.gov/NYCServWeb/ShowImage?searchID=VDBSck1FOVVWVFJPUkdNeFRVRTlQUT09&locationName=_____________________),Wednesday,2021,7,21,"103 W 69th St ,   , NY",4DSD,2018,40.775785,-73.980348
FDB3249,NY,PAS,8949641355,2021-08-01,6,38A,FIRE HYDRANT,NA,115,0,0,0,0,115,022,Manhattan,TRAFFIC,APPEAL AFFIRMED,View Summons (http://nycserv.nyc.gov/NYCServWeb/ShowImage?searchID=VDBSck1FOVVXVEJOVkUweFRsRTlQUT09&locationName=_____________________),Sunday,2021,8,1,"131 Central Park North ,   , NY",4DSD,2010,40.7988933,-73.9536201
KNP2888,NY,PAS,8950147129,2021-08-04,14,37P,FIRE HYDRANT,NA,115,0,0,0,0,115,032,Manhattan,TRAFFIC,APPEAL AFFIRMED,View Summons (http://nycserv.nyc.gov/NYCServWeb/ShowImage?searchID=VDBSck1VMUVSVEJPZWtWNVQxRTlQUT09&locationName=_____________________),Wednesday,2021,8,4,"N W 129th St ,  80ft E/of Frederick , NY",4DSD,2004,40.8129733,-73.9499157
KMM4534,NY,PAS,8975384860,2021-07-24,6,50A,FIRE HYDRANT,NA,115,0,0,0,115,0,063,Brooklyn,TRAFFIC,APPEAL AFFIRMED,View Summons (http://nycserv.nyc.gov/NYCServWeb/ShowImage?searchID=VDBSck0wNVVUVFJPUkdjeVRVRTlQUT09&locationName=_____________________),Saturday,2021,7,24,"1054 E 54th St ,   , NY",SUBN,0,40.6322818,-73.9246614
KGE9649,NY,PAS,8951287592,2021-08-31,20,18P,FIRE HYDRANT,NA,115,0,0,0,0,115,019,Manhattan,TRAFFIC,APPEAL AFFIRMED,View Summons (http://nycserv.nyc.gov/NYCServWeb/ShowImage?searchID=VDBSck1VMVVTVFJPZWxVMVRXYzlQUT09&locationName=_____________________),Tuesday,2021,8,31,"116 E 60th St ,   , NY",4DSD,2018,40.763048,-73.9687092
FSS7312,NY,PAS,8951290578,2021-09-15,20,23P,FIRE HYDRANT,NA,115,0,0,0,0,115,019,Manhattan,TRAFFIC,APPEAL AFFIRMED,View Summons (http://nycserv.nyc.gov/NYCServWeb/ShowImage?searchID=VDBSck1VMVVTVFZOUkZVelQwRTlQUT09&locationName=_____________________),Wednesday,2021,9,15,"447 E 65th St ,   , NY",SUBN,2017,40.7625819,-73.957119
GEL1892,NY,PAS,8952483054,2021-08-31,13,20P,FIRE HYDRANT,NA,115,0,0,0,0,115,034,Manhattan,TRAFFIC,APPEAL AFFIRMED,View Summons (http://nycserv.nyc.gov/NYCServWeb/ShowImage?searchID=VDBSck1VMXFVVFJOZWtFeFRrRTlQUT09&locationName=_____________________),Tuesday,2021,8,31,"68 Nagle Ave ,   , NY",SUBN,2008,40.8604198,-73.9289654
FLJ1846,NY,PAS,8953044005,2021-08-03,17,25P,FIRE HYDRANT,NA,115,0,0,0,0,115,020,Manhattan,TRAFFIC,APPEAL AFFIRMED,View Summons (http://nycserv.nyc.gov/NYCServWeb/ShowImage?searchID=VDBSck1VMTZRVEJPUkVGM1RsRTlQUT09&locationName=_____________________),Tuesday,2021,8,3,"N W 76th St ,  15ft E/of Riverside , NY",4DSD,1998,40.7716597,-73.9571116
KGR5367,NY,PAS,8956232246,2021-09-08,22,43P,FIRE HYDRANT,NA,115,0,0,0,0,115,032,Manhattan,TRAFFIC,APPEAL AFFIRMED,View Summons (http://nycserv.nyc.gov/NYCServWeb/ShowImage?searchID=VDBSck1VNXFTWHBOYWtrd1RtYzlQUT09&locationName=_____________________),Wednesday,2021,9,8,"120 Pinehurst Ave ,   , NY",4DSD,2008,40.8525772,-73.9389636
KEX4016,NY,PAS,8958196968,2021-07-20,9,02A,FIRE HYDRANT,NA,115,0,0,0,0,115,040,Bronx,TRAFFIC,APPEAL AFFIRMED,View Summons (http://nycserv.nyc.gov/NYCServWeb/ShowImage?searchID=VDBSck1VOUVSVFZPYW1zeVQwRTlQUT09&locationName=_____________________),Tuesday,2021,7,20,"E Cauldwell Ave ,  40ft S/of E 158th St , NY",SUBN,2016,40.820109,-73.9081893
KDX5766,NY,PAS,8959521000,2021-10-03,8,12A,FIRE HYDRANT,NA,115,0,0,0,0,115,049,Bronx,TRAFFIC,APPEAL AFFIRMED,View Summons (http://nycserv.nyc.gov/NYCServWeb/ShowImage?searchID=VDBSck1VOVVWWGxOVkVGM1RVRTlQUT09&locationName=_____________________),Sunday,2021,10,3,"1089 Rhinelander Ave ,   , NY",4DSD,2020,40.8516112,-73.854818
EJH5504,NY,PAS,8975083342,2021-09-29,6,26A,FIRE HYDRANT,NA,115,0,0,0,115,0,061,Brooklyn,TRAFFIC,APPEAL AFFIRMED,View Summons (http://nycserv.nyc.gov/NYCServWeb/ShowImage?searchID=VDBSck0wNVVRVFJOZWswd1RXYzlQUT09&locationName=_____________________),Wednesday,2021,9,29,"2328 E 15th St ,   , NY",SUBN,2006,40.5935686,-73.9556482
HPE3122,NY,PAS,8943774114,2021-07-06,10,00A,FIRE HYDRANT,NA,115,0,0,0,115,0,024,Manhattan,TRAFFIC,APPEAL AFFIRMED,View Summons (http://nycserv.nyc.gov/NYCServWeb/ShowImage?searchID=VDBSck1FMTZZek5PUkVWNFRrRTlQUT09&locationName=_____________________),Tuesday,2021,7,6,"N W 95th St ,  10ft E/of West End A , NY",SUBN,2020,40.7846912,-73.9502432
DRU8262,NY,PAS,8972770449,2021-07-14,11,33A,FIRE HYDRANT,NA,115,0,0,0,0,115,061,Brooklyn,TRAFFIC,APPEAL AFFIRMED,View Summons (http://nycserv.nyc.gov/NYCServWeb/ShowImage?searchID=VDBSck0wMXFZek5OUkZFd1QxRTlQUT09&locationName=_____________________),Wednesday,2021,7,14,"2214 E 5th St ,   , NY",SUBN,2020,40.596337,-73.9668293
KHA8484,NY,PAS,8973592294,2021-10-06,6,07A,FIRE HYDRANT,NA,115,0,0,0,0,115,062,Brooklyn,TRAFFIC,APPEAL AFFIRMED,View Summons (http://nycserv.nyc.gov/NYCServWeb/ShowImage?searchID=VDBSck0wMTZWVFZOYWtrMVRrRTlQUT09&locationName=_____________________),Wednesday,2021,10,6,"E 20th Dr ,  20ft N/of 20th Ave , NY",SUBN,1992,40.7337168,-73.9771598
HFK5516,NY,PAS,8976674248,2021-10-02,6,42A,FIRE HYDRANT,NA,115,0,0,0,0,115,061,Brooklyn,TRAFFIC,APPEAL AFFIRMED,View Summons (http://nycserv.nyc.gov/NYCServWeb/ShowImage?searchID=VDBSck0wNXFXVE5PUkVrd1QwRTlQUT09&locationName=_____________________),Saturday,2021,10,2,"3574 Nostrand Ave ,   , NY",SUBN,2021,40.5967576,-73.9415389
FMA1755,NY,PAS,8973572660,2021-07-01,1,34A,FIRE HYDRANT,NA,115,0,0,0,0,115,070,Brooklyn,TRAFFIC,APPEAL AFFIRMED,View Summons (http://nycserv.nyc.gov/NYCServWeb/ShowImage?searchID=VDBSck0wMTZWVE5OYWxreVRVRTlQUT09&locationName=_____________________),Thursday,2021,7,1,"S Regent Pl ,  20ft E/of Ocean Ave , NY",SUBN,2003,40.6461785,-73.9590931
FDZ7819,NY,PAS,8982381211,2021-09-26,7,46A,FIRE HYDRANT,NA,115,0,0,0,0,115,060,Brooklyn,TRAFFIC,APPEAL AFFIRMED,View Summons (http://nycserv.nyc.gov/NYCServWeb/ShowImage?searchID=VDBSck5FMXFUVFJOVkVsNFRWRTlQUT09&locationName=_____________________),Sunday,2021,9,26,"2973 Ocean Pky ,   , NY",4DSD,2015,40.5786917,-73.9675206
HSW2567,NY,PAS,8978676704,2021-07-20,24,15P,FIRE HYDRANT,NA,115,0,0,0,115,0,067,Brooklyn,TRAFFIC,APPEAL AFFIRMED,View Summons (http://nycserv.nyc.gov/NYCServWeb/ShowImage?searchID=VDBSck0wOUVXVE5PYW1OM1RrRTlQUT09&locationName=_____________________),Tuesday,2021,7,20,"131 E 37th St ,   , NY",SUBN,2015,40.7482943,-73.9783341
KHG9548,NY,PAS,8988075134,2021-07-31,24,16P,FIRE HYDRANT,NA,115,0,0,0,0,115,094,Brooklyn,TRAFFIC,APPEAL AFFIRMED,View Summons (http://nycserv.nyc.gov/NYCServWeb/ShowImage?searchID=VDBSck5FOUVRVE5PVkVWNlRrRTlQUT09&locationName=_____________________),Saturday,2021,7,31,"110 N 6th St ,   , NY",4DSD,0,40.7182004,-73.9602519
KHG3195,NY,PAS,8993742625,2021-08-02,15,20P,FIRE HYDRANT,NA,115,0,0,0,0,115,083,Brooklyn,TRAFFIC,APPEAL AFFIRMED,View Summons (http://nycserv.nyc.gov/NYCServWeb/ShowImage?searchID=VDBSck5VMTZZekJOYWxsNVRsRTlQUT09&locationName=_____________________),Monday,2021,8,2,"375 Grove St ,   , NY",4DSD,2020,40.7004052,-73.913856
KLH3834,NY,PAS,8864929060,2021-08-02,6,13A,FIRE HYDRANT,NA,115,0,0,0,0,115,115,Queens,TRAFFIC,APPEAL REMANDED,View Summons (http://nycserv.nyc.gov/NYCServWeb/ShowImage?searchID=VDBSbk1rNUVhM2xQVkVFeVRVRTlQUT09&locationName=_____________________),Monday,2021,8,2,"37-27 112th St ,   , NY",4DSD,2016,40.7540114,-73.8554287
KPR1156,NY,PAS,8944269865,2021-08-08,7,00A,FIRE HYDRANT,NA,115,0,0,115,0,0,028,Manhattan,TRAFFIC,APPEAL REVERSED,View Summons (http://nycserv.nyc.gov/NYCServWeb/ShowImage?searchID=VDBSck1FNUVTVEpQVkdjeVRsRTlQUT09&locationName=_____________________),Sunday,2021,8,8,"E W 155th St ,  40ft N/of Bradhurst , NY",4DSD,2006,40.6811149,-73.7877785
FMN7237,NY,PAS,8944731998,2021-07-25,8,23A,FIRE HYDRANT,NA,115,0,0,115,0,0,023,Manhattan,TRAFFIC,APPEAL REVERSED,View Summons (http://nycserv.nyc.gov/NYCServWeb/ShowImage?searchID=VDBSck1FNUVZM3BOVkdzMVQwRTlQUT09&locationName=_____________________),Sunday,2021,7,25,"S E 106th St ,  300ft E/of F D R Dr , NY",2DSD,2007,40.7915312,-73.9447036
EFY8708,NY,PAS,1476092515,2021-06-27,5,50A,FIRE HYDRANT,NA,115,0,0,115,0,0,045,Staten Island,POLICE DEPARTMENT,APPEAL REVERSED,View Summons (http://nycserv.nyc.gov/NYCServWeb/ShowImage?searchID=VFZSUk0wNXFRVFZOYWxWNFRsRTlQUT09&locationName=_____________________),Sunday,2021,6,27,"555 CALHOUN AVE ,   , NY",SUBN,2019,40.8227041,-73.8221857
JKB2301,NY,PAS,8781988023,2021-08-11,6,21A,FIRE HYDRANT,NA,115,0,0,115,0,0,109,Queens,TRAFFIC,APPEAL REVERSED,View Summons (http://nycserv.nyc.gov/NYCServWeb/ShowImage?searchID=VDBSak5FMVVhelJQUkVGNVRYYzlQUT09&locationName=_____________________),Wednesday,2021,8,11,"N College Point Blvd ,  200ft W/of 37th Ave , NY",4DSD,2016,40.7672943,-73.839515
T679238C,NY,PAS,8868737334,2021-07-01,6,42A,FIRE HYDRANT,NA,115,0,0,115,0,0,100,Queens,TRAFFIC,APPEAL REVERSED,View Summons (http://nycserv.nyc.gov/NYCServWeb/ShowImage?searchID=VDBSbk1rOUVZM3BPZWsxNlRrRTlQUT09&locationName=_____________________),Thursday,2021,7,1,"173 Beach 59th St ,   , NY",4DSD,2015,40.5912939,-73.7889835
HMP5994,NY,PAS,8872040449,2021-07-15,11,03A,FIRE HYDRANT,NA,115,0,0,115,0,0,102,Queens,TRAFFIC,APPEAL REVERSED,View Summons (http://nycserv.nyc.gov/NYCServWeb/ShowImage?searchID=VDBSbk0wMXFRVEJOUkZFd1QxRTlQUT09&locationName=_____________________),Thursday,2021,7,15,"S 86th Ave ,  10ft W/of 114th St , NY",SUBN,2020,40.8037381,-73.9577813
JKB2301,NY,PAS,8901604322,2021-08-10,19,36P,FIRE HYDRANT,NA,115,0,0,115,0,0,109,Queens,TRAFFIC,APPEAL REVERSED,View Summons (http://nycserv.nyc.gov/NYCServWeb/ShowImage?searchID=VDBScmQwMVVXWGRPUkUxNVRXYzlQUT09&locationName=_____________________),Tuesday,2021,8,10,"N College Point Blvd ,  200ft W/of 37th Ave , NY",4DSD,2016,40.7672943,-73.839515
DSY4709,NY,PAS,8808899433,2021-08-14,8,19A,FIRE HYDRANT,NA,115,0,0,115,0,0,103,Queens,TRAFFIC,APPEAL REVERSED,View Summons (http://nycserv.nyc.gov/NYCServWeb/ShowImage?searchID=VDBSbmQwOUVaelZQVkZGNlRYYzlQUT09&locationName=_____________________),Saturday,2021,8,14,"13903 91st Ave ,   , NY",4DSD,0,40.700537,-73.811785
JMA9289,NY,PAS,8788745181,2021-07-29,5,41A,FIRE HYDRANT,NA,115,0,0,115,0,0,071,Brooklyn,TRAFFIC,APPEAL REVERSED,View Summons (http://nycserv.nyc.gov/NYCServWeb/ShowImage?searchID=VDBSak5FOUVZekJPVkVVMFRWRTlQUT09&locationName=_____________________),Thursday,2021,7,29,"N Carroll St ,  35ft E/of New York A , NY",4DSD,2015,40.6668839,-73.9452096
JHU5387,NY,PAS,8905451937,2021-09-22,5,03A,FIRE HYDRANT,NA,115,0,0,115,0,0,069,Brooklyn,TRAFFIC,APPEAL REVERSED,View Summons (http://nycserv.nyc.gov/NYCServWeb/ShowImage?searchID=VDBScmQwNVVVVEZOVkd0NlRuYzlQUT09&locationName=_____________________),Wednesday,2021,9,22,"8318 Avenue N ,   , NY",SUBN,2019,40.6288941,-73.9013146
HYC4454,NY,PAS,8950437223,2021-09-16,8,29A,FIRE HYDRANT,NA,115,0,0,115,0,0,023,Manhattan,TRAFFIC,APPEAL REVERSED,View Summons (http://nycserv.nyc.gov/NYCServWeb/ShowImage?searchID=VDBSck1VMUVVWHBPZWtsNVRYYzlQUT09&locationName=_____________________),Thursday,2021,9,16,"2040 1st Ave ,   , NY",4DSD,2004,40.7887564,-73.9391687
NOEL,NY,PAS,8899123937,2021-07-25,11,51A,FIRE HYDRANT,NA,115,0,0,115,0,0,009,Manhattan,TRAFFIC,APPEAL REVERSED,View Summons (http://nycserv.nyc.gov/NYCServWeb/ShowImage?searchID=VDBSbk5VOVVSWGxOZW10NlRuYzlQUT09&locationName=_____________________),Sunday,2021,7,25,"8 E 3rd St ,   , NY",4DSD,2021,40.7258567,-73.9910376
GTS4040,NY,PAS,8822176959,2021-07-23,18,05P,FIRE HYDRANT,NA,115,0,0,115,0,0,121,Staten Island,TRAFFIC,APPEAL REVERSED,View Summons (http://nycserv.nyc.gov/NYCServWeb/ShowImage?searchID=VDBSbmVVMXFSVE5PYW1zeFQxRTlQUT09&locationName=_____________________),Friday,2021,7,23,"92 Crystal Ave ,   , NY",SUBN,2015,40.6220266,-74.141865
JGS8871,NY,PAS,8949341207,2021-09-10,14,02P,FIRE HYDRANT,NA,115,0,0,115,0,0,028,Manhattan,TRAFFIC,APPEAL REVERSED,View Summons (http://nycserv.nyc.gov/NYCServWeb/ShowImage?searchID=VDBSck1FOVVUVEJOVkVsM1RuYzlQUT09&locationName=_____________________),Friday,2021,9,10,"315 W 115th St ,   , NY",SUBN,2018,40.8042678,-73.9564403
GUW2315,NY,PAS,8983261936,2021-08-30,10,54A,FIRE HYDRANT,NA,115,0,0,115,0,0,067,Brooklyn,TRAFFIC,APPEAL REVERSED,View Summons (http://nycserv.nyc.gov/NYCServWeb/ShowImage?searchID=VDBSck5FMTZTVEpOVkd0NlRtYzlQUT09&locationName=_____________________),Monday,2021,8,30,"W E 56th St ,  20ft S/of Avenue D , NY",4DSD,0,40.7666208,-73.9846895
JKX3953,NY,PAS,8909580100,2021-08-06,24,42P,FIRE HYDRANT,NA,115,0,0,115,0,0,010,Manhattan,TRAFFIC,APPEAL REVERSED,View Summons (http://nycserv.nyc.gov/NYCServWeb/ShowImage?searchID=VDBScmQwOVVWVFJOUkVWM1RVRTlQUT09&locationName=_____________________),Friday,2021,8,6,"311 W 24th St ,   , NY",4DSD,2019,40.7464289,-73.9987432
JKT6911,NY,PAS,8830437438,2021-07-15,9,27A,FIRE HYDRANT,NA,115,0,0,0,115,0,120,Staten Island,TRAFFIC,HEARING ADJOURNMENT,View Summons (http://nycserv.nyc.gov/NYCServWeb/ShowImage?searchID=VDBSbmVrMUVVWHBPZWxGNlQwRTlQUT09&locationName=_____________________),Thursday,2021,7,15,"160 Alaska St ,   , NY",4DSD,2008,40.63509,-74.120679
KKA6468,NY,PAS,8958482448,2021-06-28,14,21P,FIRE HYDRANT,NA,115,0,0,0,115,0,047,Bronx,TRAFFIC,HEARING ADJOURNMENT,View Summons (http://nycserv.nyc.gov/NYCServWeb/ShowImage?searchID=VDBSck1VOUVVVFJOYWxFd1QwRTlQUT09&locationName=_____________________),Monday,2021,6,28,"4347 Bruner Ave ,   , NY",4DSD,2018,40.8972012,-73.8493065
JNL2805,NY,PAS,8879845755,2021-07-28,9,31A,FIRE HYDRANT,NA,115,0,0,0,115,0,115,Queens,TRAFFIC,HEARING ADJOURNMENT,View Summons (http://nycserv.nyc.gov/NYCServWeb/ShowImage?searchID=VDBSbk0wOVVaekJPVkdNeFRsRTlQUT09&locationName=_____________________),Wednesday,2021,7,28,"W 80th St ,  10ft S/of 35th Ave , NY",SUBN,2006,40.7842771,-73.9788642
KNB2069,NY,PAS,8953385805,2021-08-06,24,32P,FIRE HYDRANT,NA,115,0,0,0,115,0,023,Manhattan,TRAFFIC,HEARING ADJOURNMENT,View Summons (http://nycserv.nyc.gov/NYCServWeb/ShowImage?searchID=VDBSck1VMTZUVFJPVkdkM1RsRTlQUT09&locationName=_____________________),Friday,2021,8,6,"159 E 103rd St ,   , NY",4DSD,2015,40.7901994,-73.9468659
HSF3415,NY,PAS,8852640782,2021-07-16,7,46A,FIRE HYDRANT,NA,115,0,0,0,115,0,102,Queens,TRAFFIC,HEARING ADJOURNMENT,View Summons (http://nycserv.nyc.gov/NYCServWeb/ShowImage?searchID=VDBSbk1VMXFXVEJOUkdNMFRXYzlQUT09&locationName=_____________________),Friday,2021,7,16,"95-52 112th St ,   , NY",4DSD,2013,40.6893958,-73.8325374
KGX2489,NY,PAS,8995059692,2021-09-08,10,54A,FIRE HYDRANT,NA,115,0,0,0,115,0,084,Brooklyn,TRAFFIC,HEARING ADJOURNMENT,View Summons (http://nycserv.nyc.gov/NYCServWeb/ShowImage?searchID=VDBSck5VNVVRVEZQVkZrMVRXYzlQUT09&locationName=_____________________),Wednesday,2021,9,8,"S Water St ,  35ft W/of Washington , NY",SUBN,2021,40.7033283,-74.0101429
GLR9985,NY,PAS,8941881274,2021-07-17,6,41A,FIRE HYDRANT,NA,115,0,0,0,115,0,025,Manhattan,TRAFFIC,HEARING ADJOURNMENT,View Summons (http://nycserv.nyc.gov/NYCServWeb/ShowImage?searchID=VDBSck1FMVVaelJOVkVrelRrRTlQUT09&locationName=_____________________),Saturday,2021,7,17,"W Lexington Ave ,  10ft S/of E 130th St , NY",4DSD,2009,40.773008,-73.96032
DRT7622,NY,PAS,8931684629,2021-06-29,5,41A,FIRE HYDRANT,NA,115,0,0,0,115,0,018,Manhattan,TRAFFIC,HEARING ADJOURNMENT,View Summons (http://nycserv.nyc.gov/NYCServWeb/ShowImage?searchID=VDBScmVrMVVXVFJPUkZsNVQxRTlQUT09&locationName=_____________________),Tuesday,2021,6,29,"456 W 47th St ,   , NY",SUBN,2007,40.7624511,-73.992766
KGR1136,NY,PAS,8979992210,2021-09-23,13,11P,FIRE HYDRANT,NA,115,0,0,0,115,0,061,Brooklyn,TRAFFIC,HEARING ADJOURNMENT,View Summons (http://nycserv.nyc.gov/NYCServWeb/ShowImage?searchID=VDBSck0wOVVhelZOYWtsNFRVRTlQUT09&locationName=_____________________),Thursday,2021,9,23,"2729 E 23rd St ,   , NY",SUBN,2021,40.585971,-73.945281
KGC3689,NY,PAS,8945045405,2021-10-06,11,45A,FIRE HYDRANT,NA,115,0,0,0,115,0,024,Manhattan,TRAFFIC,HEARING ADJOURNMENT,View Summons (http://nycserv.nyc.gov/NYCServWeb/ShowImage?searchID=VDBSck1FNVVRVEJPVkZGM1RsRTlQUT09&locationName=_____________________),Wednesday,2021,10,6,"113 W 106th St ,   , NY",4DSD,2020,40.7997209,-73.9635118
129CD,NY,PAS,1472661771,2021-10-03,21,10P,FIRE HYDRANT,NA,115,0,0,0,0,115,062,Brooklyn,POLICE DEPARTMENT,HEARING ADJOURNMENT,View Summons (http://nycserv.nyc.gov/NYCServWeb/ShowImage?searchID=VFZSUk0wMXFXVEpOVkdNelRWRTlQUT09&locationName=_____________________),Sunday,2021,10,3,"1460 W 9 ST ,   , NY",SUBN,2013,40.6107244,-73.9833473
KLX1755,NY,PAS,1474734157,2021-10-07,4,33A,FIRE HYDRANT,NA,115,0,0,0,0,115,023,Manhattan,POLICE DEPARTMENT,HEARING ADJOURNMENT,View Summons (http://nycserv.nyc.gov/NYCServWeb/ShowImage?searchID=VFZSUk0wNUVZM3BPUkVVeFRuYzlQUT09&locationName=_____________________),Thursday,2021,10,7,"150 EAST 112 ST ,   , NY",SDN,2018,40.7958419,-73.9432265
KRK7431,NY,PAS,1474813501,2021-08-07,1,00A,FIRE HYDRANT,NA,115,0,0,0,0,115,073,Brooklyn,POLICE DEPARTMENT,HEARING ADJOURNMENT,View Summons (http://nycserv.nyc.gov/NYCServWeb/ShowImage?searchID=VFZSUk0wNUVaM2hOZWxWM1RWRTlQUT09&locationName=_____________________),Saturday,2021,8,7,"363 DUMONT ,   , NY",SDN,2017,40.6648718,-73.9059682
UKA6272,NY,PAS,1480693194,2021-08-31,3,55A,FIRE HYDRANT,NA,115,0,0,0,0,115,061,Brooklyn,POLICE DEPARTMENT,HEARING ADJOURNMENT,View Summons (http://nycserv.nyc.gov/NYCServWeb/ShowImage?searchID=VFZSUk5FMUVXVFZOZWtVMVRrRTlQUT09&locationName=_____________________),Tuesday,2021,8,31,"2312 E 3RD STREET ,   , NY",SUBN,2011,40.5936851,-73.9681839
KMN6461,NY,PAS,1482720152,2021-08-20,1,54A,FIRE HYDRANT,NA,115,0,0,0,0,115,075,Brooklyn,POLICE DEPARTMENT,HEARING ADJOURNMENT,View Summons (http://nycserv.nyc.gov/NYCServWeb/ShowImage?searchID=VFZSUk5FMXFZM2xOUkVVeFRXYzlQUT09&locationName=_____________________),Friday,2021,8,20,"770 WARWICK ,   , NY",SUBN,2004,40.6638781,-73.8830325
T762472C,NY,PAS,1482787775,2021-09-14,12,18A,FIRE HYDRANT,NA,115,0,0,0,0,115,079,Brooklyn,POLICE DEPARTMENT,HEARING ADJOURNMENT,View Summons (http://nycserv.nyc.gov/NYCServWeb/ShowImage?searchID=VFZSUk5FMXFZelJPZW1NelRsRTlQUT09&locationName=_____________________),Tuesday,2021,9,14,"267 JEFFERSON AVE ,   , NY",SDN,0,40.6838322,-73.9470742
KMT5641,NY,PAS,1484373698,2021-08-28,6,34A,FIRE HYDRANT,NA,115,0,0,0,0,115,104,Queens,POLICE DEPARTMENT,HEARING ADJOURNMENT,View Summons (http://nycserv.nyc.gov/NYCServWeb/ShowImage?searchID=VFZSUk5FNUVUVE5OZWxrMVQwRTlQUT09&locationName=_____________________),Saturday,2021,8,28,"6456 MADISON ST ,   , NY",SDN,0,40.7079487,-73.8930151
GYL9996,NY,PAS,2002841354,2021-08-05,9,18A,FIRE HYDRANT,NA,115,0,0,0,0,115,083,Brooklyn,DEPARTMENT OF SANITATION,HEARING ADJOURNMENT,View Summons (http://nycserv.nyc.gov/NYCServWeb/ShowImage?searchID=VFdwQmQwMXFaekJOVkUweFRrRTlQUT09&locationName=_____________________),Thursday,2021,8,5,"24 STOCKHOLM STREET ,   , NY",SUBN,2009,40.6952324,-73.9266592
KFP1902,NY,PAS,8986624898,2021-08-09,14,17P,FIRE HYDRANT,NA,115,0,0,0,115,0,079,Brooklyn,TRAFFIC,HEARING ADJOURNMENT,View Summons (http://nycserv.nyc.gov/NYCServWeb/ShowImage?searchID=VDBSck5FNXFXWGxPUkdjMVQwRTlQUT09&locationName=_____________________),Monday,2021,8,9,"387 Quincy St ,   , NY",4DSD,2011,40.6877344,-73.9450175
JPC3359,NY,PAS,8978721394,2021-06-28,16,00P,FIRE HYDRANT,NA,115,0,0,0,115,0,075,Brooklyn,TRAFFIC,HEARING ADJOURNMENT,View Summons (http://nycserv.nyc.gov/NYCServWeb/ShowImage?searchID=VDBSck0wOUVZM2xOVkUwMVRrRTlQUT09&locationName=_____________________),Monday,2021,6,28,"3331 Fulton St ,   , NY",4DSD,2016,40.6836864,-73.8727455
HNC6940,NY,PAS,8993316430,2021-08-05,15,08P,FIRE HYDRANT,NA,115,0,0,0,115,0,079,Brooklyn,TRAFFIC,HEARING ADJOURNMENT,View Summons (http://nycserv.nyc.gov/NYCServWeb/ShowImage?searchID=VDBSck5VMTZUWGhPYWxGNlRVRTlQUT09&locationName=_____________________),Thursday,2021,8,5,"1128 Fulton St ,   , NY",SUBN,0,40.6809231,-73.9558987
KNV6850,NY,PAS,1481949470,2021-08-02,8,31A,FIRE HYDRANT,NA,115,0,0,0,115,0,108,Queens,POLICE DEPARTMENT,HEARING ADJOURNMENT,View Summons (http://nycserv.nyc.gov/NYCServWeb/ShowImage?searchID=VFZSUk5FMVVhekJQVkZFelRVRTlQUT09&locationName=_____________________),Monday,2021,8,2,"48-41 43 STREET ,   , NY",SDN,2021,40.7387115,-73.9220756
JMC7219,NY,PAS,1472741080,2021-07-21,1,45A,FIRE HYDRANT,NA,115,0,0,0,0,115,071,Brooklyn,POLICE DEPARTMENT,HEARING ADJOURNMENT,View Summons (http://nycserv.nyc.gov/NYCServWeb/ShowImage?searchID=VFZSUk0wMXFZekJOVkVFMFRVRTlQUT09&locationName=_____________________),Wednesday,2021,7,21,"887 EAST NY AVE ,   , NY",VAN,2002,40.6628189,-73.9332769
GVT4232,NY,PAS,1483809985,2021-06-26,4,15A,FIRE HYDRANT,NA,115,0,0,0,115,0,081,Brooklyn,POLICE DEPARTMENT,HEARING ADJOURNMENT,View Summons (http://nycserv.nyc.gov/NYCServWeb/ShowImage?searchID=VFZSUk5FMTZaM2RQVkdzMFRsRTlQUT09&locationName=_____________________),Saturday,2021,6,26,"309 BAINBRIDGE ST ,   , NY",SDN,0,40.6819619,-73.9242951
KKY8047,NY,PAS,8832500462,2021-07-28,6,19A,FIRE HYDRANT,NA,115,0,0,0,115,0,107,Queens,TRAFFIC,HEARING ADJOURNMENT,View Summons (http://nycserv.nyc.gov/NYCServWeb/ShowImage?searchID=VDBSbmVrMXFWWGROUkZFeVRXYzlQUT09&locationName=_____________________),Wednesday,2021,7,28,"65-61 Parsons Blvd ,   , NY",SUBN,2019,40.7351721,-73.8099582
KLE9180,NY,PAS,8922292374,2021-07-19,15,16P,FIRE HYDRANT,NA,115,0,0,0,115,0,007,Manhattan,TRAFFIC,HEARING ADJOURNMENT,View Summons (http://nycserv.nyc.gov/NYCServWeb/ShowImage?searchID=VDBScmVVMXFTVFZOYWswelRrRTlQUT09&locationName=_____________________),Monday,2021,7,19,"N Lewis St ,  5ft E/of Broome St , NY",SUBN,2017,40.7148796,-73.9794834
JAW8210,NY,PAS,8951312033,2021-06-29,14,42P,FIRE HYDRANT,NA,115,0,0,0,115,0,034,Manhattan,TRAFFIC,HEARING ADJOURNMENT,View Summons (http://nycserv.nyc.gov/NYCServWeb/ShowImage?searchID=VDBSck1VMVVUWGhOYWtGNlRYYzlQUT09&locationName=_____________________),Tuesday,2021,6,29,"S 10th Ave ,  20ft E/of Dyckman St , NY",SUBN,2015,40.8650154,-73.9185396
KLC1365,NY,PAS,8965720205,2021-07-06,24,46P,FIRE HYDRANT,NA,115,0,0,0,115,0,042,Bronx,TRAFFIC,HEARING ADJOURNMENT,View Summons (http://nycserv.nyc.gov/NYCServWeb/ShowImage?searchID=VDBSck1rNVVZM2xOUkVsM1RsRTlQUT09&locationName=_____________________),Tuesday,2021,7,6,"1316 Boston Rd ,   , NY",4DSD,2016,40.8314892,-73.8994315
KLE3504,NY,PAS,8574586560,2021-07-19,7,40A,FIRE HYDRANT,NA,115,0,0,0,0,115,042,Bronx,TRAFFIC,HEARING ADJOURNMENT,View Summons (http://nycserv.nyc.gov/NYCServWeb/ShowImage?searchID=VDBSVk0wNUVWVFJPYWxVeVRVRTlQUT09&locationName=_____________________),Monday,2021,7,19,"N E 170th St ,  60ft W/of Park Ave , NY",SUBN,2002,40.8356545,-73.9055843
FSZ1952,NY,PAS,8693643710,2021-09-27,8,41A,FIRE HYDRANT,NA,115,0,0,0,0,115,044,Bronx,TRAFFIC,HEARING ADJOURNMENT,View Summons (http://nycserv.nyc.gov/NYCServWeb/ShowImage?searchID=VDBSWk5VMTZXVEJOZW1ONFRVRTlQUT09&locationName=_____________________),Monday,2021,9,27,"291 E 162nd St ,   , NY",SUBN,2002,40.8264351,-73.9169455
KNP2941,NY,PAS,8693648718,2021-10-13,8,51A,FIRE HYDRANT,NA,115,0,0,0,0,115,042,Bronx,TRAFFIC,HEARING ADJOURNMENT,View Summons (http://nycserv.nyc.gov/NYCServWeb/ShowImage?searchID=VDBSWk5VMTZXVEJQUkdONFQwRTlQUT09&locationName=_____________________),Wednesday,2021,10,13,"W Washington Ave ,  20ft S/of St Pauls P , NY",SUBN,0,40.7127753,-74.0059728
FWS7055,NY,PAS,8731342954,2021-09-29,6,41A,FIRE HYDRANT,NA,115,0,0,0,0,115,102,Queens,TRAFFIC,HEARING ADJOURNMENT,View Summons (http://nycserv.nyc.gov/NYCServWeb/ShowImage?searchID=VDBSamVrMVVUVEJOYW1zeFRrRTlQUT09&locationName=_____________________),Wednesday,2021,9,29,"10116 114th St ,   , NY",4DSD,2015,40.6882308,-73.8301552
KNF6180,NY,PAS,8733074641,2021-07-17,9,04A,FIRE HYDRANT,NA,115,0,0,0,0,115,070,Brooklyn,TRAFFIC,HEARING ADJOURNMENT,View Summons (http://nycserv.nyc.gov/NYCServWeb/ShowImage?searchID=VDBSamVrMTZRVE5PUkZrd1RWRTlQUT09&locationName=_____________________),Saturday,2021,7,17,"567 E 22nd St ,   , NY",4DSD,2018,40.6384143,-73.956624
HKY6278,NY,PAS,8785279432,2021-08-24,6,09A,FIRE HYDRANT,NA,115,0,0,0,115,0,107,Queens,TRAFFIC,HEARING ADJOURNMENT,View Summons (http://nycserv.nyc.gov/NYCServWeb/ShowImage?searchID=VDBSak5FNVVTVE5QVkZGNlRXYzlQUT09&locationName=_____________________),Tuesday,2021,8,24,"W 147th St ,  150ft N/of 76th Rd , NY",SUBN,2019,40.8253061,-73.9437651
KPK7527,NY,PAS,8743477343,2021-09-13,18,09P,FIRE HYDRANT,NA,115,0,0,0,0,115,108,Queens,TRAFFIC,HEARING ADJOURNMENT,View Summons (http://nycserv.nyc.gov/NYCServWeb/ShowImage?searchID=VDBSak1FMTZVVE5PZWswd1RYYzlQUT09&locationName=_____________________),Monday,2021,9,13,"41-49 45th St ,   , NY",SUBN,2004,40.7452075,-73.9190504
DEP5752,NY,PAS,8752585396,2021-08-05,6,28A,FIRE HYDRANT,NA,115,0,0,0,0,115,110,Queens,TRAFFIC,HEARING ADJOURNMENT,View Summons (http://nycserv.nyc.gov/NYCServWeb/ShowImage?searchID=VDBSak1VMXFWVFJPVkUwMVRtYzlQUT09&locationName=_____________________),Thursday,2021,8,5,"41-15 94th St ,   , NY",SUBN,2017,40.7462689,-73.8716085
HFW6550,NY,PAS,8752587710,2021-08-16,6,33A,FIRE HYDRANT,NA,115,0,0,0,0,115,110,Queens,TRAFFIC,HEARING ADJOURNMENT,View Summons (http://nycserv.nyc.gov/NYCServWeb/ShowImage?searchID=VDBSak1VMXFWVFJPZW1ONFRVRTlQUT09&locationName=_____________________),Monday,2021,8,16,"W 99th St ,  25ft S/of Roosevelt , NY",SUBN,2005,40.7969186,-73.9711392
HVE5371,NY,PAS,8785281190,2021-09-01,10,36A,FIRE HYDRANT,NA,115,0,0,0,115,0,105,Queens,TRAFFIC,HEARING ADJOURNMENT,View Summons (http://nycserv.nyc.gov/NYCServWeb/ShowImage?searchID=VDBSak5FNVVTVFJOVkVVMVRVRTlQUT09&locationName=_____________________),Wednesday,2021,9,1,"7716 270th St ,   , NY",4DSD,2013,40.7516434,-73.7048238
JLP3865,NY,PAS,8808892578,2021-07-29,7,17A,FIRE HYDRANT,NA,115,0,0,0,115,0,107,Queens,TRAFFIC,HEARING ADJOURNMENT,View Summons (http://nycserv.nyc.gov/NYCServWeb/ShowImage?searchID=VDBSbmQwOUVaelZOYWxVelQwRTlQUT09&locationName=_____________________),Thursday,2021,7,29,"20615 86th Rd ,   , NY",4DSD,2016,40.7239362,-73.762459
KDA9639,NY,PAS,8733078476,2021-08-09,7,36A,FIRE HYDRANT,NA,115,0,0,0,115,0,070,Brooklyn,TRAFFIC,HEARING ADJOURNMENT,View Summons (http://nycserv.nyc.gov/NYCServWeb/ShowImage?searchID=VDBSamVrMTZRVE5QUkZFelRtYzlQUT09&locationName=_____________________),Monday,2021,8,9,"1452 E 15th St ,   , NY",4DSD,2013,40.6142681,-73.9595973
GTK1895,NY,PAS,8835689314,2021-07-27,1,51A,FIRE HYDRANT,NA,115,0,0,0,115,0,114,Queens,TRAFFIC,HEARING ADJOURNMENT,View Summons (http://nycserv.nyc.gov/NYCServWeb/ShowImage?searchID=VDBSbmVrNVVXVFJQVkUxNFRrRTlQUT09&locationName=_____________________),Tuesday,2021,7,27,"31-34 38th St ,   , NY",SUBN,2011,40.7609028,-73.9187712
EVB3985,NY,PAS,8790765394,2021-09-22,20,02P,FIRE HYDRANT,NA,115,0,0,0,0,115,019,Manhattan,TRAFFIC,HEARING ADJOURNMENT,View Summons (http://nycserv.nyc.gov/NYCServWeb/ShowImage?searchID=VDBSak5VMUVZekpPVkUwMVRrRTlQUT09&locationName=_____________________),Wednesday,2021,9,22,"170 E 73rd St ,   , NY",CONV,2020,40.7706081,-73.9610849
JRY3520,NY,PAS,8836642937,2021-08-05,17,56P,FIRE HYDRANT,NA,115,0,0,0,115,0,109,Queens,TRAFFIC,HEARING ADJOURNMENT,View Summons (http://nycserv.nyc.gov/NYCServWeb/ShowImage?searchID=VDBSbmVrNXFXVEJOYW10NlRuYzlQUT09&locationName=_____________________),Thursday,2021,8,5,"144-81 37th Ave ,   , NY",4DSD,2019,40.7645783,-73.820138
HAZ2874,NY,PAS,8799747236,2021-08-06,6,13A,FIRE HYDRANT,NA,115,0,0,0,0,115,032,Manhattan,TRAFFIC,HEARING ADJOURNMENT,View Summons (http://nycserv.nyc.gov/NYCServWeb/ShowImage?searchID=VDBSak5VOVVZekJPZWtsNlRtYzlQUT09&locationName=_____________________),Friday,2021,8,6,"W 5th Ave ,  85ft N/of W 142nd St , NY",4DSD,2015,40.7744146,-73.9656177
JJX6428,NY,PAS,8864934030,2021-08-19,5,58A,FIRE HYDRANT,NA,115,0,0,0,115,0,115,Queens,TRAFFIC,HEARING ADJOURNMENT,View Summons (http://nycserv.nyc.gov/NYCServWeb/ShowImage?searchID=VDBSbk1rNUVhM3BPUkVGNlRVRTlQUT09&locationName=_____________________),Thursday,2021,8,19,"W 114th St ,  500ft N/of 37th Ave , NY",4DSD,2007,40.8037381,-73.9577813
KDF5353,NY,PAS,8818495094,2021-08-19,6,19A,FIRE HYDRANT,NA,115,0,0,0,0,115,033,Manhattan,TRAFFIC,HEARING ADJOURNMENT,View Summons (http://nycserv.nyc.gov/NYCServWeb/ShowImage?searchID=VDBSbmVFOUVVVFZPVkVFMVRrRTlQUT09&locationName=_____________________),Thursday,2021,8,19,"188 Audubon Ave ,   , NY",4DSD,2001,40.844576000000004,-73.935606
KNF7619,NY,PAS,8829493041,2021-08-30,6,52A,FIRE HYDRANT,NA,115,0,0,0,0,115,102,Queens,TRAFFIC,HEARING ADJOURNMENT,View Summons (http://nycserv.nyc.gov/NYCServWeb/ShowImage?searchID=VDBSbmVVOVVVVFZOZWtFd1RWRTlQUT09&locationName=_____________________),Monday,2021,8,30,"8716 Park Ln South ,   , NY",4DSD,2021,40.6967532,-73.8576424
KNF7619,NY,PAS,8829499742,2021-09-24,6,30A,FIRE HYDRANT,NA,115,0,0,0,0,115,102,Queens,TRAFFIC,HEARING ADJOURNMENT,View Summons (http://nycserv.nyc.gov/NYCServWeb/ShowImage?searchID=VDBSbmVVOVVVVFZQVkdNd1RXYzlQUT09&locationName=_____________________),Friday,2021,9,24,"8620 Park Ln South ,   , NY",4DSD,2021,40.6964144,-73.8584878
CHU2374,NY,PAS,8833042182,2021-08-31,9,01A,FIRE HYDRANT,NA,115,0,0,0,0,115,110,Queens,TRAFFIC,HEARING ADJOURNMENT,View Summons (http://nycserv.nyc.gov/NYCServWeb/ShowImage?searchID=VDBSbmVrMTZRVEJOYWtVMFRXYzlQUT09&locationName=_____________________),Tuesday,2021,8,31,"82-35 Pettit Ave ,   , NY",SUBN,0,40.7450339,-73.88304
KHG7308,NY,PAS,8836644170,2021-08-14,13,22P,FIRE HYDRANT,NA,115,0,0,0,0,115,109,Queens,TRAFFIC,HEARING ADJOURNMENT,View Summons (http://nycserv.nyc.gov/NYCServWeb/ShowImage?searchID=VDBSbmVrNXFXVEJPUkVVelRVRTlQUT09&locationName=_____________________),Saturday,2021,8,14,"143-30 38th Ave ,   , NY",SUBN,2021,40.762224,-73.8238679
CHU2374,NY,PAS,8836828966,2021-08-17,14,28P,FIRE HYDRANT,NA,115,0,0,0,0,115,110,Queens,TRAFFIC,HEARING ADJOURNMENT,View Summons (http://nycserv.nyc.gov/NYCServWeb/ShowImage?searchID=VDBSbmVrNXFaM2xQUkdzeVRtYzlQUT09&locationName=_____________________),Tuesday,2021,8,17,"8309 Pettit Ave ,   , NY",SUBN,0,40.7456323,-73.8825418
HAL3150,NY,PAS,8880348760,2021-09-02,13,31P,FIRE HYDRANT,NA,115,0,0,0,115,0,106,Queens,TRAFFIC,HEARING ADJOURNMENT,View Summons (http://nycserv.nyc.gov/NYCServWeb/ShowImage?searchID=VDBSbk5FMUVUVEJQUkdNeVRVRTlQUT09&locationName=_____________________),Thursday,2021,9,2,"109-18 133rd St ,   , NY",4DSD,2009,40.6853143,-73.8107637
FGV9398,NY,PAS,8837498512,2021-08-05,24,55P,FIRE HYDRANT,NA,115,0,0,0,0,115,102,Queens,TRAFFIC,HEARING ADJOURNMENT,View Summons (http://nycserv.nyc.gov/NYCServWeb/ShowImage?searchID=VDBSbmVrNTZVVFZQUkZWNFRXYzlQUT09&locationName=_____________________),Thursday,2021,8,5,"82-60 Austin St ,   , NY",SUBN,2006,40.7096702,-73.8305801
JHP5901,NY,PAS,8842131283,2021-07-08,7,04A,FIRE HYDRANT,NA,115,0,0,0,0,115,120,Staten Island,TRAFFIC,HEARING ADJOURNMENT,View Summons (http://nycserv.nyc.gov/NYCServWeb/ShowImage?searchID=VDBSbk1FMXFSWHBOVkVrMFRYYzlQUT09&locationName=_____________________),Thursday,2021,7,8,"318 Broad St ,   , NY",4DSD,2005,40.6226834,-74.0847653
KET6648,NY,PAS,8843391689,2021-08-02,7,57A,FIRE HYDRANT,NA,115,0,0,0,0,115,113,Queens,TRAFFIC,HEARING ADJOURNMENT,View Summons (http://nycserv.nyc.gov/NYCServWeb/ShowImage?searchID=VDBSbk1FMTZUVFZOVkZrMFQxRTlQUT09&locationName=_____________________),Monday,2021,8,2,"142-03 Foch Blvd ,   , NY",4DSD,2002,40.6789131,-73.7994572
HDU9573,NY,PAS,8845527839,2021-09-25,11,19A,FIRE HYDRANT,NA,115,0,0,0,0,115,120,Staten Island,TRAFFIC,HEARING ADJOURNMENT,View Summons (http://nycserv.nyc.gov/NYCServWeb/ShowImage?searchID=VDBSbk1FNVVWWGxPZW1kNlQxRTlQUT09&locationName=_____________________),Saturday,2021,9,25,"W Osgood Ave ,  30ft S/of Fairway Av , NY",4DSD,2016,40.6175345,-74.0807868
KNP2009,NY,PAS,8847221742,2021-10-21,6,34A,FIRE HYDRANT,NA,115,0,0,0,0,115,032,Manhattan,TRAFFIC,HEARING ADJOURNMENT,View Summons (http://nycserv.nyc.gov/NYCServWeb/ShowImage?searchID=VDBSbk1FNTZTWGxOVkdNd1RXYzlQUT09&locationName=_____________________),Thursday,2021,10,21,"2574A Frederick Douglass B ,   , NY",SUBN,2017,40.8180145,-73.9451187
KDN6864,NY,PAS,8870880035,2021-09-16,11,05A,FIRE HYDRANT,NA,115,0,0,0,115,0,019,Manhattan,TRAFFIC,HEARING ADJOURNMENT,View Summons (http://nycserv.nyc.gov/NYCServWeb/ShowImage?searchID=VDBSbk0wMUVaelJOUkVGNlRsRTlQUT09&locationName=_____________________),Thursday,2021,9,16,"N E 94th St ,  20ft E/of Lexington , NY",4DSD,2018,40.7843337,-73.9513217
HZM9324,NY,PAS,8850239660,2021-10-02,7,51A,FIRE HYDRANT,NA,115,0,0,0,0,115,101,Queens,TRAFFIC,HEARING ADJOURNMENT,View Summons (http://nycserv.nyc.gov/NYCServWeb/ShowImage?searchID=VDBSbk1VMUVTWHBQVkZreVRVRTlQUT09&locationName=_____________________),Saturday,2021,10,2,"10-62 Reads Ln ,   , NY",4DSD,2018,40.6054794,-73.7442346
KLT4756,NY,PAS,8857599619,2021-08-31,6,31A,FIRE HYDRANT,NA,115,0,0,0,0,115,042,Bronx,TRAFFIC,HEARING ADJOURNMENT,View Summons (http://nycserv.nyc.gov/NYCServWeb/ShowImage?searchID=VDBSbk1VNTZWVFZQVkZsNFQxRTlQUT09&locationName=_____________________),Tuesday,2021,8,31,"1357 3rd Ave ,   , NY",4DSD,2019,40.7731177,-73.9578113
HHR2067,NY,PAS,8858070458,2021-08-21,7,15A,FIRE HYDRANT,NA,115,0,0,0,0,115,040,Bronx,TRAFFIC,HEARING ADJOURNMENT,View Summons (http://nycserv.nyc.gov/NYCServWeb/ShowImage?searchID=VDBSbk1VOUVRVE5OUkZFeFQwRTlQUT09&locationName=_____________________),Saturday,2021,8,21,"686 Union Ave ,   , NY",4DSD,2009,40.8161542,-73.9038439
EKG1825,NY,PAS,8858588885,2021-09-15,6,23A,FIRE HYDRANT,NA,115,0,0,0,0,115,114,Queens,TRAFFIC,HEARING ADJOURNMENT,View Summons (http://nycserv.nyc.gov/NYCServWeb/ShowImage?searchID=VDBSbk1VOUVWVFJQUkdjMFRsRTlQUT09&locationName=_____________________),Wednesday,2021,9,15,"W 24th St ,  10ft N/of 39th Ave , NY",SUBN,0,40.7460428,-73.9987334
HLG1262,NY,PAS,8862642830,2021-07-16,14,12P,FIRE HYDRANT,NA,115,0,0,0,0,115,114,Queens,TRAFFIC,HEARING ADJOURNMENT,View Summons (http://nycserv.nyc.gov/NYCServWeb/ShowImage?searchID=VDBSbk1rMXFXVEJOYW1kNlRVRTlQUT09&locationName=_____________________),Friday,2021,7,16,"W 61st St ,  15ft S/of 34th Ave , NY",SUBN,2016,40.7716723,-73.9866895
KEW8596,NY,PAS,8863338309,2021-08-24,6,11A,FIRE HYDRANT,NA,115,0,0,0,0,115,113,Queens,TRAFFIC,HEARING ADJOURNMENT,View Summons (http://nycserv.nyc.gov/NYCServWeb/ShowImage?searchID=VDBSbk1rMTZUWHBQUkUxM1QxRTlQUT09&locationName=_____________________),Tuesday,2021,8,24,"12802 140th St ,   , NY",4DSD,2018,40.6723375,-73.8000828
JGA6542,NY,PAS,8863342404,2021-09-13,8,51A,FIRE HYDRANT,NA,115,0,0,0,0,115,106,Queens,TRAFFIC,HEARING ADJOURNMENT,View Summons (http://nycserv.nyc.gov/NYCServWeb/ShowImage?searchID=VDBSbk1rMTZUVEJOYWxGM1RrRTlQUT09&locationName=_____________________),Monday,2021,9,13,"12958 134th St ,   , NY",4DSD,2007,40.6706326,-73.8046747
GSM1638,NY,PAS,8864717936,2021-08-17,5,49A,FIRE HYDRANT,NA,115,0,0,0,0,115,106,Queens,TRAFFIC,HEARING ADJOURNMENT,View Summons (http://nycserv.nyc.gov/NYCServWeb/ShowImage?searchID=VDBSbk1rNUVZM2hPZW10NlRtYzlQUT09&locationName=_____________________),Tuesday,2021,8,17,"156-48 78th St ,   , NY",SUBN,2016,40.6606773,-73.8551603
KJJ9821,NY,PAS,8864722889,2021-10-01,3,16A,FIRE HYDRANT,NA,115,0,0,0,0,115,104,Queens,TRAFFIC,HEARING ADJOURNMENT,View Summons (http://nycserv.nyc.gov/NYCServWeb/ShowImage?searchID=VDBSbk1rNUVZM2xOYW1jMFQxRTlQUT09&locationName=_____________________),Friday,2021,10,1,"78-68 81st St ,   , NY",4DSD,0,40.7035015,-73.8675658
KLV5957,NY,PAS,8865189757,2021-09-27,11,17A,FIRE HYDRANT,NA,115,0,0,0,0,115,114,Queens,TRAFFIC,HEARING ADJOURNMENT,View Summons (http://nycserv.nyc.gov/NYCServWeb/ShowImage?searchID=VDBSbk1rNVVSVFJQVkdNeFRuYzlQUT09&locationName=_____________________),Monday,2021,9,27,"E 27th St ,  15ft N/of 40th Ave , NY",4DSD,2015,40.7415735,-73.9818507
JPX2881,NY,PAS,8860938995,2021-08-06,24,34P,FIRE HYDRANT,NA,115,0,0,0,115,0,114,Queens,TRAFFIC,HEARING ADJOURNMENT,View Summons (http://nycserv.nyc.gov/NYCServWeb/ShowImage?searchID=VDBSbk1rMUVhM3BQUkdzMVRsRTlQUT09&locationName=_____________________),Friday,2021,8,6,"30-88 35th St ,   , NY",4DSD,2015,40.7633935,-73.9201137
HUV6590,NY,PAS,8865883832,2021-07-29,8,23A,FIRE HYDRANT,NA,115,0,0,0,0,115,110,Queens,TRAFFIC,HEARING ADJOURNMENT,View Summons (http://nycserv.nyc.gov/NYCServWeb/ShowImage?searchID=VDBSbk1rNVVaelJOZW1kNlRXYzlQUT09&locationName=_____________________),Thursday,2021,7,29,"93-08 Junction Blvd ,   , NY",4DSD,2013,40.7459804,-73.8684289
KKM3053,NY,PAS,8866880449,2021-10-21,22,13P,FIRE HYDRANT,NA,115,0,0,0,0,115,106,Queens,TRAFFIC,HEARING ADJOURNMENT,View Summons (http://nycserv.nyc.gov/NYCServWeb/ShowImage?searchID=VDBSbk1rNXFaelJOUkZFd1QxRTlQUT09&locationName=_____________________),Thursday,2021,10,21,"104-54 126th St ,   , NY",4DSD,2018,40.686916,-73.8180242
JCF5014,NY,PAS,8946888088,2021-08-26,10,48A,FIRE HYDRANT,NA,115,0,0,0,115,0,033,Manhattan,TRAFFIC,HEARING ADJOURNMENT,View Summons (http://nycserv.nyc.gov/NYCServWeb/ShowImage?searchID=VDBSck1FNXFaelJQUkVFMFQwRTlQUT09&locationName=_____________________),Thursday,2021,8,26,"580 W 172nd St ,   , NY",PICK,2016,40.8430633,-73.9374976
JRD5975,NY,PAS,8868415501,2021-08-04,9,02A,FIRE HYDRANT,NA,115,0,0,0,0,115,046,Bronx,TRAFFIC,HEARING ADJOURNMENT,View Summons (http://nycserv.nyc.gov/NYCServWeb/ShowImage?searchID=VDBSbk1rOUVVWGhPVkZWM1RWRTlQUT09&locationName=_____________________),Wednesday,2021,8,4,"2407 Walton Ave ,   , NY",SUBN,2011,40.8612134,-73.9012768
CHU2374,NY,PAS,8871241666,2021-09-27,13,41P,FIRE HYDRANT,NA,115,0,0,0,0,115,110,Queens,TRAFFIC,HEARING ADJOURNMENT,View Summons (http://nycserv.nyc.gov/NYCServWeb/ShowImage?searchID=VDBSbk0wMVVTVEJOVkZreVRtYzlQUT09&locationName=_____________________),Monday,2021,9,27,"40-35 Ithaca St ,   , NY",SUBN,0,40.7461172,-73.8822891
KGT3383,NY,PAS,8872918327,2021-07-05,16,18P,FIRE HYDRANT,NA,115,0,0,0,0,115,007,Manhattan,TRAFFIC,HEARING ADJOURNMENT,View Summons (http://nycserv.nyc.gov/NYCServWeb/ShowImage?searchID=VDBSbk0wMXFhM2hQUkUxNVRuYzlQUT09&locationName=_____________________),Monday,2021,7,5,"549 F D R Dr ,   , NY",SUBN,2020,40.7167142,-73.9762765
HJP5273,NY,PAS,8873378754,2021-08-13,24,41P,FIRE HYDRANT,NA,115,0,0,0,0,115,106,Queens,TRAFFIC,HEARING ADJOURNMENT,View Summons (http://nycserv.nyc.gov/NYCServWeb/ShowImage?searchID=VDBSbk0wMTZUVE5QUkdNeFRrRTlQUT09&locationName=_____________________),Friday,2021,8,13,"E 118th St ,  200ft N/of Liberty A , NY",4DSD,2014,40.7986115,-73.9375225
KEF2019,NY,PAS,8876538653,2021-09-13,7,32A,FIRE HYDRANT,NA,115,0,0,0,0,115,110,Queens,TRAFFIC,HEARING ADJOURNMENT,View Summons (http://nycserv.nyc.gov/NYCServWeb/ShowImage?searchID=VDBSbk0wNXFWWHBQUkZreFRYYzlQUT09&locationName=_____________________),Monday,2021,9,13,"S Woodside Ave ,  20ft E/of 79th St , NY",4DSD,2005,40.7437259,-73.8998758
JRC5365,NY,PAS,8877481869,2021-07-15,7,33A,FIRE HYDRANT,NA,115,0,0,0,0,115,104,Queens,TRAFFIC,HEARING ADJOURNMENT,View Summons (http://nycserv.nyc.gov/NYCServWeb/ShowImage?searchID=VDBSbk0wNTZVVFJOVkdjeVQxRTlQUT09&locationName=_____________________),Thursday,2021,7,15,"S Mount Olivet Cres ,  40ft E/of 60th Dr , NY",4DSD,2012,40.7155902,-73.8968825
KMC5057,NY,PAS,8958198850,2021-08-26,6,36A,FIRE HYDRANT,NA,115,0,0,0,115,0,046,Bronx,TRAFFIC,HEARING ADJOURNMENT,View Summons (http://nycserv.nyc.gov/NYCServWeb/ShowImage?searchID=VDBSck1VOUVSVFZQUkdjeFRVRTlQUT09&locationName=_____________________),Thursday,2021,8,26,"1678 Davidson Ave ,   , NY",SUBN,2019,40.8465659,-73.9140979
GFV5517,NY,PAS,8878720732,2021-09-30,13,41P,FIRE HYDRANT,NA,115,0,0,0,0,115,114,Queens,TRAFFIC,HEARING ADJOURNMENT,View Summons (http://nycserv.nyc.gov/NYCServWeb/ShowImage?searchID=VDBSbk0wOUVZM2xOUkdONlRXYzlQUT09&locationName=_____________________),Thursday,2021,9,30,"E 57th St ,  150ft S/of 30th Ave , NY",SUBN,2013,40.7601787,-73.967331
KJD8532,NY,PAS,8879674699,2021-08-26,6,12A,FIRE HYDRANT,NA,115,0,0,0,0,115,062,Brooklyn,TRAFFIC,HEARING ADJOURNMENT,View Summons (http://nycserv.nyc.gov/NYCServWeb/ShowImage?searchID=VDBSbk0wOVVXVE5PUkZrMVQxRTlQUT09&locationName=_____________________),Thursday,2021,8,26,"1414 W 5th St ,   , NY",4DSD,2007,40.6121669,-73.9797431
KNP2941,NY,PAS,8880417757,2021-09-18,5,51A,FIRE HYDRANT,NA,115,0,0,0,0,115,042,Bronx,TRAFFIC,HEARING ADJOURNMENT,View Summons (http://nycserv.nyc.gov/NYCServWeb/ShowImage?searchID=VDBSbk5FMUVVWGhPZW1NeFRuYzlQUT09&locationName=_____________________),Saturday,2021,9,18,"1420 Washington Ave ,   , NY",SUBN,2004,40.8356524,-73.9041045
KNP2941,NY,PAS,8880421785,2021-09-29,5,59A,FIRE HYDRANT,NA,115,0,0,0,0,115,042,Bronx,TRAFFIC,HEARING ADJOURNMENT,View Summons (http://nycserv.nyc.gov/NYCServWeb/ShowImage?searchID=VDBSbk5FMUVVWGxOVkdNMFRsRTlQUT09&locationName=_____________________),Wednesday,2021,9,29,"489 St Pauls Pl ,   , NY",SUBN,2004,40.8362019,-73.9036193
FRG4258,NY,PAS,8881106644,2021-08-27,3,13A,FIRE HYDRANT,NA,115,0,0,0,0,115,023,Manhattan,TRAFFIC,HEARING ADJOURNMENT,View Summons (http://nycserv.nyc.gov/NYCServWeb/ShowImage?searchID=VDBSbk5FMVVSWGRPYWxrd1RrRTlQUT09&locationName=_____________________),Friday,2021,8,27,"342 E 100th St ,   , NY",SUBN,2003,40.7858559,-73.9432134
JKV3630,NY,PAS,8852286871,2021-09-29,13,14P,FIRE HYDRANT,NA,115,0,0,0,115,0,030,Manhattan,TRAFFIC,HEARING ADJOURNMENT,View Summons (http://nycserv.nyc.gov/NYCServWeb/ShowImage?searchID=VDBSbk1VMXFTVFJPYW1jelRWRTlQUT09&locationName=_____________________),Wednesday,2021,9,29,"W St Nicholas Ter ,  600ft S/of W 140th S , NY",4DSD,2013,40.8169234,-73.9500643
GMJ8946,NY,PAS,8885612672,2021-07-15,24,08P,FIRE HYDRANT,NA,115,0,0,0,0,115,108,Queens,TRAFFIC,HEARING ADJOURNMENT,View Summons (http://nycserv.nyc.gov/NYCServWeb/ShowImage?searchID=VDBSbk5FNVVXWGhOYWxrelRXYzlQUT09&locationName=_____________________),Thursday,2021,7,15,"42-05 48th Ave ,   , NY",4DSD,2010,40.7399745,-73.9228571
JME4634,NY,PAS,8889086087,2021-08-11,8,28A,FIRE HYDRANT,NA,115,0,0,0,0,115,115,Queens,TRAFFIC,HEARING ADJOURNMENT,View Summons (http://nycserv.nyc.gov/NYCServWeb/ShowImage?searchID=VDBSbk5FOVVRVFJPYWtFMFRuYzlQUT09&locationName=_____________________),Wednesday,2021,8,11,"N 34th Ave ,  21ft E/of Junction B , NY",SUBN,2018,40.7543519,-73.8794607
KNV7229,NY,PAS,8951732253,2021-09-11,9,22A,FIRE HYDRANT,NA,115,0,0,0,115,0,033,Manhattan,TRAFFIC,HEARING ADJOURNMENT,View Summons (http://nycserv.nyc.gov/NYCServWeb/ShowImage?searchID=VDBSck1VMVVZM3BOYWtreFRYYzlQUT09&locationName=_____________________),Saturday,2021,9,11,"N W 158th St ,  10ft W/of Amsterdam , NY",CONV,2013,42.9377453,-74.190356
KNF6450,NY,PAS,8890811213,2021-07-19,11,01A,FIRE HYDRANT,NA,115,0,0,0,0,115,048,Bronx,TRAFFIC,HEARING ADJOURNMENT,View Summons (http://nycserv.nyc.gov/NYCServWeb/ShowImage?searchID=VDBSbk5VMUVaM2hOVkVsNFRYYzlQUT09&locationName=_____________________),Monday,2021,7,19,"1805 Clinton Ave ,   , NY",SUBN,2018,40.6901285,-73.9682115
KMB8955,NY,PAS,8890901421,2021-10-04,9,16A,FIRE HYDRANT,NA,115,0,0,0,0,115,066,Brooklyn,TRAFFIC,HEARING ADJOURNMENT,View Summons (http://nycserv.nyc.gov/NYCServWeb/ShowImage?searchID=VDBSbk5VMUVhM2ROVkZGNVRWRTlQUT09&locationName=_____________________),Monday,2021,10,4,"927 49th St ,   , NY",SUBN,2002,40.6400798,-73.9999671
GRN6182,NY,PAS,8870067361,2021-08-06,17,37P,FIRE HYDRANT,NA,115,0,0,0,115,0,120,Staten Island,TRAFFIC,HEARING ADJOURNMENT,View Summons (http://nycserv.nyc.gov/NYCServWeb/ShowImage?searchID=VDBSbk0wMUVRVEpPZWsweVRWRTlQUT09&locationName=_____________________),Friday,2021,8,6,"368 Pelton Ave ,   , NY",SUBN,2020,40.6335978,-74.1102088
KKJ5211,NY,PAS,8893765858,2021-10-09,6,09A,FIRE HYDRANT,NA,115,0,0,0,0,115,050,Bronx,TRAFFIC,HEARING ADJOURNMENT,View Summons (http://nycserv.nyc.gov/NYCServWeb/ShowImage?searchID=VDBSbk5VMTZZekpPVkdjeFQwRTlQUT09&locationName=_____________________),Saturday,2021,10,9,"2629 Sedgwick Ave ,   , NY",SUBN,2018,40.8695489,-73.9049807
EBP2290,NY,PAS,8897062155,2021-09-30,9,15A,FIRE HYDRANT,NA,115,0,0,0,0,115,006,Manhattan,TRAFFIC,HEARING ADJOURNMENT,View Summons (http://nycserv.nyc.gov/NYCServWeb/ShowImage?searchID=VDBSbk5VNTZRVEpOYWtVeFRsRTlQUT09&locationName=_____________________),Thursday,2021,9,30,"24 W 10th St ,   , NY",SUBN,2008,40.7338661,-73.9968835
